city_name,drg_segment,total_passengers_2022,total_passengers_and_non_passengers_2022,total_passengers_2015,total_passengers_and_non_passengers_2015,wifi_service,city_label,city_attraction_area,city_category_in_attraction_area_2020,department,region,sum_municipal_population_2021,non_scholarized_15_years_old_or_more_2020,main_residences_2020,housing_2020,jobs_at_workplace_2020,hotels_2024_sum,camping_sites_2024_sum,other_tourist_accommodations_2024_sum,latitude,longitude,passenger_growth_rate,attraction_density,city_size_category,Dubious,total_non_passengers_2022,total_non_passengers_2015,non_passenger_growth_rate,distance_to_paris,population_category,high_population,total_passengers_2022_min_max,total_passengers_and_non_passengers_2022_min_max,total_passengers_2022_std,total_passengers_and_non_passengers_2022_std,total_passengers_2022_bx,total_passengers_and_non_passengers_2022_bx,total_passengers_2022_BC
Serquigny,C,31539.0,31539.0,29582.0,29582.0,0,Serquigny,230,20,27,28,32349,25370,15325,18562,11671,3,0,1,49.1074117,0.7189895,0.06615509431410993,0.00012365142662833472,Small,No,0.0,0.0,0.0,120.79853426996861,"(0, 300000]",Low,0.001434005313976823,0.001132864193405759,-0.2503190833154384,-0.24713591379141775,14.11448261364492,13.68795369803266,14.11448261364492
Pont-de-l'Arche,C,8398.0,8398.0,10860.0,10860.0,0,Alizay,015,20,27,28,709065,504460,323682,356637,276548,80,9,5,49.3170928,1.1596559,-0.22670349907918969,0.00013256894642945288,Large,No,0.0,0.0,0.0,99.05537451560826,"(600000, 900000]",High,0.00038180425586477844,0.0003016253608988572,-0.2663405749975263,-0.2604110810857341,11.81573084738696,11.50699002299654,11.81573084738696
Louverné,C,909.0,909.0,1609.0,1609.0,0,Louverné,075,20,53,52,145065,104586,64431,71351,65618,26,7,2,48.1088564,-0.7144109,-0.435052827843381,0.00024127115431013684,Medium,No,0.0,0.0,0.0,239.87672033332476,"(0, 300000]",Low,4.1285966931668314e-05,3.261591374254643e-05,-0.2715255260025458,-0.2647072535876629,8.32381074369523,8.162272971320178,8.32381074369523
Saint-Aigulin - La Roche-Chalais,C,26956.0,26956.0,11140.0,11140.0,0,Saint-Aigulin,000,30,17,75,4444949,3492165,2011354,3253364,1282649,2546,2523,1005,45.1573163,-0.0189768,1.4197486535008976,0.0013664948686700343,Tiny,No,0.0,0.0,0.0,449.3103248591149,"(4200000, 4500000]",High,0.0012256203068756822,0.0009682400384695362,-0.2534920877827911,-0.2497650176205458,13.832554731529472,13.421304445009637,13.832554731529472
Beaumont-le-Roger,C,12724.0,12724.0,12389.0,12389.0,0,Beaumont-le-Roger,000,30,27,28,4444949,3492165,2011354,3253364,1282649,2546,2523,1005,49.0741722,0.7727865,0.027040116232141417,0.0013664948686700343,Tiny,No,0.0,0.0,0.0,116.22126116738632,"(4200000, 4500000]",High,0.0005785036974357004,0.0004570179191039848,-0.2633455024848124,-0.25792940900089706,12.518957723591768,12.175852479848203,12.518957723591768
Dinan,C,92068.0,92068.0,84903.0,84903.0,0,Dinan,187,11,22,53,48603,37120,22413,26293,19044,15,5,1,48.456764,-2.053542,0.08439042201100079,0.00043207209431516574,Small,No,0.0,0.0,0.0,325.35316452513314,"(0, 300000]",Low,0.004186206076539545,0.0033071027869328437,-0.208412300115702,-0.21241258285681375,16.106788469823233,15.565976588251129,16.106788469823233
Chapeauroux,C,1454.0,1454.0,311.0,311.0,0,Saint Bonnet-Laval,000,30,48,76,4444949,3492165,2011354,3253364,1282649,2546,2523,1005,44.8380008,3.741923,3.67524115755627,0.0013664948686700343,Tiny,No,0.0,0.0,0.0,460.5725581434775,"(4200000, 4500000]",High,6.606664091598465e-05,5.219264611004401e-05,-0.2711481994839538,-0.2643946065034659,9.024866695323345,8.837051261355692,9.024866695323345
Phalempin,B,238185.0,297732.0,283486.0,354358.0,0,Phalempin,004,20,59,32,1521660,1042779,655674,714534,628196,122,17,17,50.5154,3.0199,-0.1597997784723055,0.0001025196167343559,Huge,No,59547.0,70872.0,-0.15979512360311549,189.863989181113,"(1500000, 1800000]",High,0.010830018444551196,0.010694679090839305,-0.10724932962559174,-0.09443047290399116,17.979160461709025,17.746007779130288,17.979160461709025
Villefranche-de-Lauragais,B,263590.0,329487.0,219910.0,274888.0,0,Villefranche-de-Lauragais,005,20,31,76,1490640,1036295,684922,760724,668535,169,26,54,43.398537,1.714725,0.1986267109271975,0.0001670423442279826,Huge,Yes,65897.0,54978.0,0.1986067154134381,609.8879778340337,"(1200000, 1500000]",High,0.011985161605232952,0.011835338056582215,-0.08966037512131605,-0.07621376068623852,18.18484218271995,17.94050381656395,18.18484218271995
La Tour-du-Pin,B,938021.0,1172527.0,820231.0,1025289.0,0,La Tour-du-Pin,364,11,38,84,15598,11438,6790,7685,5501,1,0,0,45.560277,5.450092,0.14360588663437496,6.411078343377356e-05,Tiny,No,234506.0,205058.0,0.14360814988929962,436.4766065523509,"(0, 300000]",Low,0.04265095011150167,0.04211784898336233,0.37727669141177417,0.4074082537383937,20.864109105364353,20.464674583012933,20.864109105364353
Thiviers,C,115906.0,144882.0,115606.0,144507.0,0,Thiviers,542,11,24,75,7488,6156,3657,5007,2566,1,2,0,45.418965,0.921348,0.0025950210196702592,0.00040064102564102563,Tiny,No,28976.0,28901.0,0.0025950659146742328,397.94321712248967,"(0, 300000]",Low,0.005270099115875568,0.005204213875477829,-0.19190824589515784,-0.18211507257281473,16.551090738747803,16.39254276036649,16.551090738747803
Jonchery-sur-Vesle,C,122546.0,122546.0,103105.0,103105.0,0,Jonchery-sur-Vesle,036,20,51,44,355889,249051,165083,186119,146028,73,5,6,49.290057,3.819422,0.18855535619029146,0.0002360286493822512,Large,Yes,0.0,0.0,0.0,118.0326611461956,"(300000, 600000]",High,0.005572014116345037,0.004401891133899066,-0.18731109344845875,-0.19492844004551899,16.659462798657593,16.085049327605255,16.659462798657593
Ourscamp,C,3376.0,3376.0,3527.0,3527.0,0,Pimprez,078,20,60,32,141752,103104,62276,68844,57224,20,7,1,49.5341405,2.9540017,-0.04281258860221151,0.00019752807720525988,Medium,No,0.0,0.0,0.0,86.84494460236238,"(0, 300000]",Low,0.00015345830219645436,0.00012123205823909052,-0.26981751770646045,-0.2632920235753437,10.330526350007846,10.089298248908625,10.330526350007846
Ychoux,B,182592.0,228240.0,96735.0,120919.0,0,Ychoux,266,20,40,75,28675,22088,13306,20381,8397,19,27,9,44.3292659,-0.9460318,0.8875484571251356,0.0019180470793374019,Small,Yes,45648.0,24184.0,0.8875289447568641,563.1894874938113,"(0, 300000]",Low,0.0083022532907712,0.008198484071239045,-0.14573871154868556,-0.13429555762879253,17.445343217851768,17.240694646457143,17.445343217851768
Luc-en-Diois,C,9479.0,9479.0,5830.0,5830.0,0,Luc-en-Diois,468,20,26,84,10576,8274,5206,7739,4133,8,23,1,44.6136615,5.4546227,0.6259005145797598,0.0030257186081694403,Tiny,Yes,0.0,0.0,0.0,529.2428463810179,"(0, 300000]",Low,0.0004309563816942206,0.0003404555401452148,-0.2655921530404658,-0.25979094989671214,12.018949816726124,11.700433340742016,12.018949816726124
Le Havre,A,1875316.0,2344145.0,1749706.0,2187132.0,1,Le Havre,039,11,76,28,334482,243315,150616,170389,132770,51,7,12,49.492996,0.125677,0.07178920344332133,0.00020927882516846947,Large,No,468829.0,437426.0,0.07179042855248659,174.91991874601487,"(300000, 600000]",High,0.0852689351062352,0.0842030820529821,1.0262056074552728,1.0795237610644501,22.410077190586644,21.913462840760463,22.410077190586644
Livry-sur-Seine,C,92740.0,92740.0,93577.0,93577.0,0,Livry-sur-Seine,001,20,77,11,13171056,9184054,5642167,6342502,6066757,2555,89,251,48.5104579,2.6788796,-0.008944505594323391,0.00021980014358757567,Huge,No,0.0,0.0,0.0,47.034221642444045,"(12900000, 13200000]",High,0.004216761329599105,0.0033312414367511157,-0.2079470461331445,-0.21202708039703325,16.12073271709592,15.579082970947457,16.12073271709592
Savy-Berlette,C,23412.0,23412.0,36355.0,36355.0,0,Savy-Berlette,069,20,62,32,159616,116226,70376,76659,69617,21,4,0,50.3538756,2.5577316,-0.35601705405033696,0.00015662590216519647,Medium,No,0.0,0.0,0.0,166.15835098066538,"(0, 300000]",Low,0.001064477722287761,0.0008409373971660291,-0.25594574866699316,-0.25179808416438815,13.581605024807544,13.183762806025783,13.581605024807544
Saint-Martin du Touch,C,10826.0,10826.0,8637.0,8637.0,0,Toulouse,005,11,31,76,1490640,1036295,684922,760724,668535,169,26,54,43.5997881,1.3718548,0.2534444830380919,0.0001670423442279826,Huge,Yes,0.0,0.0,0.0,590.287000068343,"(1200000, 1500000]",High,0.0004922032951930721,0.00038884060161130515,-0.264659568048643,-0.25901822398402713,12.243571295730659,11.9141025281342,12.243571295730659
Réding,C,65176.0,65176.0,33952.0,33952.0,0,Réding,170,20,57,44,52298,40877,23201,30163,18646,9,8,2,48.7429595,7.095885,0.9196512723845429,0.00036330261195456805,Medium,Yes,0.0,0.0,0.0,349.00375642238026,"(0, 300000]",Low,0.0029634503246381964,0.0023411257468837704,-0.22703076752483334,-0.22783956522052984,15.451054109347028,14.949055629586695,15.451054109347028
Tieffenbach - Struth,C,72219.0,72219.0,54594.0,54594.0,0,Tieffenbach,000,30,67,44,4444949,3492165,2011354,3253364,1282649,2546,2523,1005,48.9062169,7.25527,0.32283767446972195,0.0013664948686700343,Tiny,No,0.0,0.0,0.0,359.839400918024,"(4200000, 4500000]",High,0.0032836893831180865,0.002594114602047597,-0.22215460115704694,-0.22379924702970533,15.644495160629146,15.131167036936832,15.644495160629146
Lapeyrouse,C,8109.0,8109.0,4359.0,4359.0,0,Lapeyrouse,478,20,63,84,9397,7606,4642,6917,2906,1,5,0,46.2267825,2.893393,0.8602890571231934,0.0006385016494625945,Tiny,Yes,0.0,0.0,0.0,296.53382230318095,"(0, 300000]",Low,0.0003686636782841043,0.0002912443046526062,-0.26654066190371545,-0.2605768700900147,11.757219155454987,11.451269398058612,11.757219155454987
Bléré - La Croix,B,207320.0,259151.0,128280.0,160351.0,0,La Croix-en-Touraine,019,20,37,24,522597,377061,244387,276078,214496,152,37,11,47.3377228,0.9877583,0.6161521671343935,0.00038270407216267984,Large,Yes,51831.0,32071.0,0.6161329550060802,197.19064250938712,"(300000, 600000]",High,0.00942661385276051,0.00930882604226972,-0.1286184727381471,-0.1165630181432642,17.699419836882104,17.48130023902531,17.699419836882104
Caudry,C,129414.0,161768.0,115271.0,144088.0,0,Caudry,232,11,59,32,31555,23312,13486,15243,9132,2,0,0,50.11146,3.40983,0.1226934788455032,6.33813975598162e-05,Small,No,32354.0,28817.0,0.12274004927646875,158.75593273618264,"(0, 300000]",Low,0.005884296077674,0.005810769293381616,-0.18255608697196335,-0.17242817594208032,16.76587888146225,16.596459827778776,16.76587888146225
Gallieni Cancéropôle,C,53873.0,53873.0,54091.0,54091.0,0,Toulouse,005,11,31,76,1490640,1036295,684922,760724,668535,169,26,54,43.5730877,1.4195801,-0.004030245327318778,0.0001670423442279826,Huge,No,0.0,0.0,0.0,592.7895757003138,"(1200000, 1500000]",High,0.0024495127869414487,0.001935115093764825,-0.23485631181776104,-0.23432369364746286,15.09498330991436,14.613573421081453,15.09498330991436
Fontaines - Mercurey,C,52096.0,52096.0,35110.0,35110.0,0,Fontaines,070,20,71,27,154521,117622,71009,81003,63392,41,11,1,46.8512109,4.7750693,0.4837937909427514,0.00034299545045657224,Medium,Yes,0.0,0.0,0.0,288.7770056955195,"(0, 300000]",Low,0.0023687141490146045,0.0018712841700638284,-0.2360866039710418,-0.23534309524125743,15.032676525958077,14.554833621802013,15.032676525958077
Éguzon-Chantôme,C,10316.0,10316.0,5382.0,5382.0,0,Éguzon-Chantôme,000,30,36,24,4444949,3492165,2011354,3253364,1282649,2546,2523,1005,46.4397694,1.5521707,0.916759568933482,0.0013664948686700343,Tiny,No,0.0,0.0,0.0,276.12476419415685,"(4200000, 4500000]",High,0.0004690140406389413,0.00037052109058850925,-0.26501266258897677,-0.25931079281511055,12.161799470984155,11.83633560872201,12.161799470984155
Le Pont-de-Claix,C,9227.0,9227.0,12466.0,12466.0,0,Le Pont-de-Claix,014,12,38,84,722904,509389,327884,386478,314066,122,48,27,45.1251549,5.6998669,-0.25982672870206963,0.00027251197946061994,Large,No,0.0,0.0,0.0,488.01845742249395,"(600000, 900000]",High,0.0004194981617968853,0.0003314035464633627,-0.26576662328392486,-0.25993551331912984,11.973606415056835,11.657282132906028,11.973606415056835
Sarreguemines,B,457024.0,571280.0,425128.0,531410.0,0,Sarreguemines,121,11,57,44,76994,60888,34655,39692,28512,6,3,0,49.1073357,7.0686398,0.0750268154532282,0.00011689222536821051,Medium,No,114256.0,106282.0,0.0750268154532282,346.5105053310492,"(0, 300000]",Low,0.020780436635475606,0.02052069007370945,0.044262152947176905,0.062494269459158015,19.322706444497342,19.014626384541987,19.322706444497342
Gorges,C,75277.0,75277.0,29896.0,29896.0,0,Gorges,008,20,44,52,1031953,714965,459881,501124,471335,115,19,40,47.1001487,-1.3058778,1.5179622691998929,0.0001686123302127132,Huge,Yes,0.0,0.0,0.0,334.52565323089834,"(900000, 1200000]",High,0.0034227339721897183,0.002703959826964675,-0.22003741859951592,-0.2220449813719542,15.722997347988807,15.20504259850922,15.722997347988807
Annecy,A,2817701.0,3522126.0,2235873.0,2794841.0,1,Annecy,043,11,74,84,298164,219660,133651,155463,128175,95,44,17,45.901965,6.121835,0.2602240824948465,0.0005232019962168471,Large,Yes,704425.0,558968.0,0.2602241988807946,435.8113921254621,"(0, 300000]",Low,0.1281183579552443,0.12651687796306865,1.67865854547975,1.7552894948065534,23.34752227282275,22.789372728939874,23.34752227282275
Montreuil,B,2010237.0,2010237.0,2248554.0,2248554.0,0,Versailles,001,12,78,11,13171056,9184054,5642167,6342502,6066757,2555,89,251,48.8067323,2.1511693,-0.10598678083781844,0.00021980014358757567,Huge,No,0.0,0.0,0.0,14.905315013049707,"(12900000, 13200000]",High,0.09140367513309382,0.07220890305964929,1.119617114271702,0.8879726370460168,22.568509912186116,21.58761505755515,22.568509912186116
Aiguebelette-le-Lac,C,4046.0,4046.0,4071.0,4071.0,0,Aiguebelette-le-Lac,050,20,73,84,261463,191251,119668,141100,111156,89,30,10,45.5363048,5.8131468,-0.006140997297961189,0.0004933776480802255,Large,No,0.0,0.0,0.0,454.0382441663219,"(0, 300000]",Low,0.0001839226170028616,0.00014529886683766553,-0.2693536484083749,-0.2629076684443125,10.61945115841197,10.365641043895815,10.61945115841197
Leucate La Franqui,C,107549.0,107549.0,61925.0,61925.0,0,Leucate,000,30,11,76,4444949,3492165,2011354,3253364,1282649,2546,2523,1005,42.9327725,3.0128555,0.7367622123536536,0.0013664948686700343,Tiny,No,0.0,0.0,0.0,661.9030533779502,"(4200000, 4500000]",High,0.004890113625073859,0.0038631897479993204,-0.19769414996098078,-0.2035316846724954,16.406051041927746,15.847144380912424,16.406051041927746
Abbaretz,C,40825.0,40825.0,35989.0,35989.0,0,Abbaretz,008,20,44,52,1031953,714965,459881,501124,471335,115,19,40,47.5546432,-1.5244159,0.13437439217538694,0.0001686123302127132,Huge,No,0.0,0.0,0.0,320.88079760129267,"(900000, 1200000]",High,0.0018562316233683121,0.001466422976460039,-0.24388999331241915,-0.2418088664082009,14.583360689508304,14.130922700556122,14.583360689508304
Dives-sur-Mer Port Guillaume,C,3223.0,3223.0,2978.0,2978.0,0,Dives-sur-Mer,395,11,14,28,13091,10636,6629,22320,5463,19,8,9,49.2910882,-0.1008455,0.08226997985224983,0.0027499809029103966,Tiny,No,0.0,0.0,0.0,183.45738773011618,"(0, 300000]",Low,0.0001465015258302151,0.00011573620493225176,-0.2699234460685606,-0.26337979422466873,10.256988379872972,10.018919290094775,10.256988379872972
Logelbach,C,34475.0,34475.0,36040.0,36040.0,0,Wintzenheim,058,20,68,44,199434,152819,89838,104254,84738,133,24,13,48.087299,7.3206082,-0.04342397336293008,0.0008524123268850847,Medium,No,0.0,0.0,0.0,377.6289051315039,"(0, 300000]",Low,0.0015675026696060942,0.0012383271039213056,-0.2482863665106931,-0.24545163518737675,14.275422931463403,13.840070730297288,14.275422931463403
Martigues,C,35042.0,35042.0,52934.0,52934.0,0,Martigues,003,13,13,93,1888788,1372344,849590,969271,758303,303,52,76,43.3929209,5.0257804,-0.3380058185665168,0.00022818865854717417,Huge,No,0.0,0.0,0.0,642.9340265995658,"(1800000, 2100000]",High,0.0015932836643750986,0.001258694089705473,-0.24789380846291023,-0.24512636748693695,14.305007295101154,13.868025206357109,14.305007295101154
Angers Maître École,C,33549.0,33549.0,16649.0,16649.0,0,Angers,026,11,49,52,441234,305634,199448,218134,181000,56,25,8,47.4670899,-0.531894,1.0150759805393716,0.0002017070307365253,Large,Yes,0.0,0.0,0.0,263.35733533098323,"(300000, 600000]",High,0.0015253982583960447,0.0012050646192014842,-0.24892747542118157,-0.2459828483983243,14.226105813898323,13.793465136620226,14.226105813898323
Ciry-le-Noble,C,7875.0,7875.0,1470.0,1470.0,0,Ciry-le-Noble,176,20,71,27,48201,38763,23657,27898,15943,6,2,0,46.6040913,4.2997146,4.357142857142857,0.0001659716603389971,Small,Yes,0.0,0.0,0.0,291.38823062080274,"(0, 300000]",Low,0.0003580239026651501,0.00028283888194802925,-0.26670266998692743,-0.2607111075536882,11.708383907014246,11.404755537054172,11.708383907014246
Triel-sur-Seine,B,771326.0,771326.0,585508.0,585508.0,0,Triel-sur-Seine,001,12,78,11,13171056,9184054,5642167,6342502,6066757,2555,89,251,48.98099,2.00577,0.31736201725680946,0.00021980014358757567,Huge,No,0.0,0.0,0.0,27.09899977713418,"(12900000, 13200000]",High,0.03507147405679412,0.027706464391486368,0.2618667023903124,0.17725353295506566,20.438400301307198,19.61356475605501,20.438400301307198
Frynaudour,C,735.0,735.0,607.0,607.0,0,Plourivo,292,20,22,53,23579,19079,11853,17086,7747,15,10,1,48.7275919,-3.1284527,0.21087314662273476,0.0011026761100979686,Small,Yes,0.0,0.0,0.0,400.27264753005977,"(0, 300000]",Low,3.337433890731778e-05,2.6365727628886647e-05,-0.2716459935516009,-0.26480707118885605,8.012907228384636,7.86246858510903,8.012907228384636
Boussay - La Bruffière,C,37644.0,37644.0,17921.0,17921.0,0,Boussay,000,30,44,52,4444949,3492165,2011354,3253364,1282649,2546,2523,1005,47.0505741,-1.1828046,1.1005524245298812,0.0013664948686700343,Tiny,No,0.0,0.0,0.0,330.5949656139633,"(4200000, 4500000]",High,0.0017115943317277428,0.0013521595165315807,-0.24609233396497182,-0.24363369278403688,14.435231196100355,13.991045365651818,14.435231196100355
Forbach,B,330425.0,402957.0,365895.0,446214.0,0,Forbach,197,11,57,44,43070,32906,18449,21400,14120,5,0,0,49.1892278,6.9013184,-0.09694037907049836,0.00011609008590666357,Small,No,72532.0,80319.0,-0.09695090825333981,334.9230692577567,"(0, 300000]",Low,0.015024090679988516,0.014474425262160284,-0.04338768178168741,-0.034066639078986514,18.647769512379625,18.329846459895016,18.647769512379625
Is-sur-Tille,C,154522.0,193153.0,173034.0,216293.0,0,Marcilly-sur-Tille,028,20,21,27,414799,296478,196357,219324,179356,113,16,9,47.520454,5.129481,-0.10698475444132367,0.0003326912552826791,Large,No,38631.0,43259.0,-0.10698351788067223,255.63917247886988,"(300000, 600000]",High,0.007025934907762467,0.006938137633480537,-0.16517275811176443,-0.1544237195429568,17.114213729374885,16.926886089814204,17.114213729374885
Meulan - Hardricourt,B,734198.0,734198.0,464652.0,464652.0,0,Hardricourt,001,20,78,11,13171056,9184054,5642167,6342502,6066757,2555,89,251,49.00564,1.90213,0.5801029587734476,0.00021980014358757567,Huge,No,0.0,0.0,0.0,35.083305380849325,"(12900000, 13200000]",High,0.03338329632525339,0.02637280398902683,0.2361614198540106,0.155954522052193,20.33181219827634,19.514513475685003,20.33181219827634
Bourg-Madame,C,5356.0,5356.0,7061.0,7061.0,0,Bourg-Madame,000,30,66,76,4444949,3492165,2011354,3253364,1282649,2546,2523,1005,42.4324069,1.9486704,-0.24146721427559836,0.0013664948686700343,Tiny,No,0.0,0.0,0.0,716.0788681991583,"(4200000, 4500000]",High,0.00024348717281837427,0.00019235486573935696,-0.26844668007928213,-0.2621561681134904,11.073041481385237,10.798935949380333,11.073041481385237
Albi,B,531922.0,664902.0,412872.0,516090.0,0,Albi,082,11,81,76,139305,105551,66431,76266,51243,27,12,3,43.92238,2.137958,0.28834602491813444,0.0003014967158393453,Medium,Yes,132980.0,103218.0,0.28834118080179816,549.9832182352902,"(0, 300000]",Low,0.02418598327781932,0.023883649408956896,0.09611720173525959,0.11620187554482764,19.642804302496412,19.31621812416856,19.642804302496412
Tullins Fures,B,398404.0,498005.0,301557.0,376947.0,0,Tullins,014,20,38,84,722904,509389,327884,386478,314066,122,48,27,45.300996,5.492194,0.3211565309377663,0.00027251197946061994,Large,Yes,99601.0,75390.0,0.32114338771720385,462.94114139313575,"(600000, 900000]",High,0.018115036435547856,0.017888607387051864,0.003677051075866501,0.020459012404967322,19.035547364791384,18.743855723587984,19.035547364791384
Saint-Laurent - Gainneville,C,20887.0,20887.0,40212.0,40212.0,0,Saint-Laurent-de-Brèvedent,039,20,76,28,334482,243315,150616,170389,132770,51,7,12,49.5285649,0.2522963,-0.4805779369342485,0.00020927882516846947,Large,No,0.0,0.0,0.0,168.16196042324808,"(300000, 600000]",High,0.0009496681776815247,0.000750237857298265,-0.2576939128127635,-0.2532465867104384,13.379902337893723,12.992704909658233,13.379902337893723
Lamothe-Montravel,C,9465.0,9465.0,6628.0,6628.0,0,Lamothe-Montravel,000,30,24,75,4444949,3492165,2011354,3253364,1282649,2546,2523,1005,44.8537384,0.0215683,0.4280325890162945,0.0013664948686700343,Tiny,No,0.0,0.0,0.0,479.52794672192414,"(4200000, 4500000]",High,0.0004303198139221464,0.00033995265160733414,-0.2656018458317691,-0.2597989811979576,12.016460730132744,11.698064756125394,12.016460730132744
Chanteloup-les-Vignes,B,948491.0,948491.0,838046.0,838046.0,0,Chanteloup-les-Vignes,001,12,78,11,13171056,9184054,5642167,6342502,6066757,2555,89,251,48.97095,2.02771,0.13178870849571503,0.00021980014358757567,Huge,No,0.0,0.0,0.0,25.16272193949711,"(12900000, 13200000]",High,0.043127011866760004,0.03407033923531703,0.3845255146221566,0.27888678189407207,20.888402234688286,20.031456629899008,20.888402234688286
Chenonceaux,C,61257.0,61257.0,46471.0,46471.0,0,Chisseaux,019,20,37,24,522597,377061,244387,276078,214496,152,37,11,47.330554,1.0661,0.31817692754621163,0.00038270407216267984,Large,Yes,0.0,0.0,0.0,195.0095804830484,"(300000, 600000]",High,0.0027852568175840025,0.002200352876887031,-0.22974405674751613,-0.23008775590487474,15.334695417593961,14.839463051105458,15.334695417593961
Périgueux Saint-Georges,C,2123.0,2123.0,1348.0,1348.0,0,Périgueux,101,11,24,75,113435,87239,54800,64193,48521,27,9,1,45.1783328,0.7336349,0.5749258160237388,0.00032617798739366155,Medium,Yes,0.0,0.0,0.0,427.64819270774706,"(0, 300000]",Low,9.648548659581516e-05,7.62235340987704e-05,-0.27068502252810417,-0.2640108250368094,9.603751653423659,9.39296062239628,9.603751653423659
Pont-à-Mousson,B,1067490.0,1317890.0,979424.0,1209166.0,0,Pont-à-Mousson,274,11,54,44,25882,18932,11317,12831,9324,7,0,0,48.90058,6.050842,0.08991611396085862,0.0002704582335213662,Small,No,250400.0,229742.0,0.08991825613079019,271.826077714942,"(0, 300000]",Low,0.04853779246026396,0.04733937659278719,0.4669135483578111,0.4907978282340378,21.148031262744315,20.70547854636407,21.148031262744315
Eu,C,33338.0,33338.0,37137.0,37137.0,0,Eu,248,11,76,28,28841,22991,13772,20213,10736,17,13,3,50.0541988,1.416837,-0.10229690066510488,0.0011442044311917063,Small,No,0.0,0.0,0.0,147.72689862208117,"(0, 300000]",Low,0.0015158042726883553,0.0011974853705234254,-0.24907355963296673,-0.24610389158138038,14.214688883531323,13.782674944302364,14.214688883531323
Artix,C,65223.0,65223.0,41904.0,41904.0,0,Artix,044,20,64,75,283042,209498,131771,152200,116389,50,15,7,43.3931062,-0.5701881,0.5564862542955327,0.000254379208739339,Large,Yes,0.0,0.0,0.0,648.3278732919954,"(0, 300000]",Low,0.0029655873735873026,0.0023428140155466555,-0.22699822743974374,-0.22781260299492018,15.45240912416842,14.950331635167855,15.45240912416842
Saint-Aubin - Saint-Luperce,C,23878.0,23878.0,17792.0,17792.0,0,Saint-Aubin-des-Bois,065,20,28,24,170935,126231,75568,86106,66392,30,2,4,48.4476422,1.3318387,0.34206384892086333,0.00021060637084271798,Medium,Yes,0.0,0.0,0.0,87.07456404192135,"(0, 300000]",Low,0.0010856663352725158,0.0008576764013554857,-0.25562311718504105,-0.2515307565657904,13.616572069841927,13.216872478355922,13.616572069841927
Montaut Bétharram,C,244.0,244.0,414.0,414.0,0,Montaut,044,20,64,75,283042,209498,131771,152200,116389,50,15,7,43.1269731,-0.1982813,-0.4106280193236715,0.000254379208739339,Large,No,0.0,0.0,0.0,667.4101313748165,"(0, 300000]",Low,1.1048997758144714e-05,8.728708193214517e-06,-0.27198593358945167,-0.2650887403968207,6.460242279680654,6.3599426838119415,6.460242279680654
Selles-sur-Cher,C,31557.0,31557.0,27074.0,27074.0,0,Selles-sur-Cher,000,30,41,24,4444949,3492165,2011354,3253364,1282649,2546,2523,1005,47.2816956,1.5461989,0.16558321636994902,0.0013664948686700343,Tiny,No,0.0,0.0,0.0,185.68750964747684,"(4200000, 4500000]",High,0.001434823758255204,0.0011335107643830342,-0.2503066211551913,-0.24712558783267363,14.115511659037054,13.688926561024358,14.115511659037054
Monteux,C,96193.0,120242.0,45716.0,57146.0,0,Monteux,040,20,84,93,339324,249199,151855,176154,132731,93,22,13,44.0374619,4.9947813,1.1041429696386384,0.0003772205915290401,Large,Yes,24049.0,11430.0,1.1040244969378827,574.2926475314073,"(300000, 600000]",High,0.004373766223668545,0.004319130048807847,-0.20555638839241377,-0.1962501627647664,16.190914405770965,16.050359208876827,16.190914405770965
Rémilly,B,252235.0,315294.0,218389.0,272987.0,0,Rémilly,033,20,57,44,375059,275543,169558,188088,162072,54,5,5,49.0140249,6.3950968,0.15498033325854324,0.00017063981933509127,Large,No,63059.0,54598.0,0.15496904648521923,297.0786560838489,"(300000, 600000]",High,0.011468859672954213,0.01132551684100076,-0.09752192121051308,-0.08435577915597756,18.095331047801636,17.855874809744947,18.095331047801636
Brionne,C,25360.0,25360.0,8258.0,8258.0,0,Brionne,653,11,27,28,4219,3214,1946,2309,1845,0,1,0,49.1964187,0.7115304,2.0709614918866555,0.00023702299123014932,Tiny,Yes,0.0,0.0,0.0,123.78827538794907,"(0, 300000]",Low,0.0011530515808592255,0.0009109107451511396,-0.25459706599136517,-0.25068058596252446,13.723649085092635,13.318239833808658,13.723649085092635
Montbartier,C,80459.0,80459.0,51823.0,51823.0,0,Montbartier,005,20,82,76,1490640,1036295,684922,760724,668535,169,26,54,43.9241555,1.264501,0.5525731817918684,0.0001670423442279826,Huge,Yes,0.0,0.0,0.0,555.6448300810862,"(1200000, 1500000]",High,0.0036583549861103188,0.0028901004272002206,-0.21644970113282996,-0.21907225258239682,15.84940322196281,15.32396375189635,15.84940322196281
Roscoff,C,11236.0,11236.0,30629.0,30629.0,0,Roscoff,296,12,29,53,23026,18257,11053,15768,10232,18,9,2,48.7207491,-3.9833434,-0.6331581181233471,0.0012594458438287153,Small,No,0.0,0.0,0.0,462.8610596001553,"(0, 300000]",Low,0.0005108456370895303,0.0004035680516492391,-0.264375707731904,-0.25878302159041106,12.30671673887101,11.974141425251517,12.30671673887101
Balbigny,C,85385.0,106731.0,110115.0,137643.0,0,Balbigny,000,30,42,84,4444949,3492165,2011354,3253364,1282649,2546,2523,1005,45.817858,4.187443,-0.22458339009217637,0.0013664948686700343,Tiny,No,21346.0,27528.0,-0.22457134553908747,366.63914191223427,"(4200000, 4500000]",High,0.003882335903627277,0.00383380668914315,-0.21303922327854688,-0.20400094213097822,15.962637754894361,15.833279466576656,15.962637754894361
Vif,C,41839.0,41839.0,9544.0,9544.0,0,Vif,014,20,38,84,722904,509389,327884,386478,314066,122,48,27,45.0476532,5.6854542,3.383801341156748,0.00027251197946061994,Large,Yes,0.0,0.0,0.0,494.9146802173393,"(600000, 900000]",High,0.0019023373177171135,0.001502846474846539,-0.2431879582851672,-0.24122717073228211,14.62829599144766,14.17334255764727,14.62829599144766
Marmande,B,541375.0,676719.0,433512.0,541890.0,0,Marmande,175,11,47,75,50446,39365,23463,26907,19317,6,3,0,44.503019,0.168044,0.2488120282714204,0.00017840859532965945,Medium,Yes,135344.0,108378.0,0.24881433501264094,512.4996423731506,"(0, 300000]",Low,0.024615802931349122,0.024308123255538033,0.10266191289168226,0.12298086746034276,19.680138467810984,19.351380144451994,19.680138467810984
Veauche - Saint-Galmier,C,72299.0,72299.0,113417.0,113417.0,0,Veauche,023,20,42,84,500562,359465,223886,257625,192815,46,10,5,45.565928,4.293438,-0.36253824382588146,0.00012186302595882229,Large,No,0.0,0.0,0.0,395.72141389714363,"(300000, 600000]",High,0.0032873269132442243,0.0025969882508354862,-0.22209921377817105,-0.22375335387973147,15.646588458947853,15.13313717963158,15.646588458947853
Villefranche-sur-Saône,B,2450701.0,2784888.0,2082592.0,2366582.0,0,Villefranche-sur-Saône,002,20,69,84,2308818,1598413,1010763,1122933,1056227,329,39,45,45.9845,4.72077,0.1767552165762665,0.0001788794092908146,Huge,Yes,334187.0,283990.0,0.17675622381069755,367.33209761774555,"(2100000, 2400000]",High,0.1114311885015854,0.10003483939949218,1.4245689448865921,1.3323623185511124,23.023765715762277,22.28187157573055,23.023765715762277
Vannes,A,2019329.0,2524162.0,1322859.0,1653574.0,1,Vannes,057,11,56,53,207414,153232,95046,112282,82467,44,36,8,47.665169,-2.75245,0.526488461733261,0.0004242722284898801,Large,Yes,504833.0,330715.0,0.5264895756164674,399.35617565572795,"(0, 300000]",Low,0.09181708043192942,0.09066940247610103,1.125911889880947,1.182793100800025,22.578822315097803,22.071274992012423,22.578822315097803
Chaingy Fourneaux Plage,C,21115.0,21115.0,10526.0,10526.0,0,Chaingy,025,20,45,24,456452,325301,200690,226493,194138,84,13,7,47.8770705,1.782422,1.0059851795553867,0.0002278443297433246,Large,Yes,0.0,0.0,0.0,117.32072031542434,"(300000, 600000]",High,0.0009600351385410185,0.0007584277563437502,-0.2575360587829672,-0.25311579123301287,13.399034496140729,13.010832452181536,13.399034496140729
Willer-sur-Thur,C,30849.0,30849.0,38789.0,38789.0,0,Willer-sur-Thur,029,20,68,44,408968,304955,179702,202903,153319,71,13,8,47.8425494,7.0693196,-0.2046972079713321,0.0002249564758122885,Large,No,0.0,0.0,0.0,367.9352406541921,"(300000, 600000]",High,0.0014026316166388813,0.0011080789726102117,-0.25079679945824296,-0.24753174220994237,14.074612366725205,13.650257914572663,14.074612366725205
Rosult,C,64374.0,64374.0,64914.0,64914.0,0,Rosult,004,20,59,32,1521660,1042779,655674,714534,628196,122,17,17,50.4563667,3.3490115,-0.00831869858582124,0.0001025196167343559,Huge,No,0.0,0.0,0.0,191.2823199972569,"(1500000, 1800000]",High,0.0029269840851236613,0.0023123174177851775,-0.22758602599806416,-0.22829964404901787,15.42778922435758,14.927146513525054,15.42778922435758
Aime - La Plagne,C,126465.0,158082.0,101243.0,126554.0,0,Aime-la-Plagne,645,11,73,84,4421,3407,2050,4639,2226,5,1,7,45.5544,6.648646,0.2491233961854153,0.002940511196561864,Tiny,Yes,31617.0,25311.0,0.24914068981865592,491.66987394445164,"(0, 300000]",Low,0.005750207623399231,0.005678365925479606,-0.18459780422577596,-0.17454270282712633,16.720854326212493,16.553729781778575,16.720854326212493
Massiac - Blesle,C,35514.0,35514.0,36218.0,36218.0,0,Massiac,000,30,15,84,4444949,3492165,2011354,3253364,1282649,2546,2523,1005,45.2537695,3.1965518,-0.019437848583577225,0.0013664948686700343,Tiny,No,0.0,0.0,0.0,407.0146856654565,"(4200000, 4500000]",High,0.0016147450921193138,0.0012756486175540213,-0.24756702292754246,-0.24485559790209113,14.329292532484013,13.890970654054746,14.329292532484013
Marquixanes,C,1783.0,1783.0,567.0,567.0,0,Marquixanes,030,20,66,76,422786,318448,197384,281534,136457,96,116,34,42.6428224,2.4858388,2.144620811287478,0.0005818546498701471,Large,Yes,0.0,0.0,0.0,692.1606672559346,"(300000, 600000]",High,8.10259835597279e-05,6.40105267502398e-05,-0.2709204188883267,-0.26420587092419834,9.335261229561462,9.13526810022703,9.335261229561462
Moirans La Galifette,B,184249.0,230312.0,109829.0,137287.0,0,Moirans,014,20,38,84,722904,509389,327884,386478,314066,122,48,27,45.324154,5.56517,0.6775988126997423,0.00027251197946061994,Large,Yes,46063.0,27458.0,0.6775803044650011,463.59819840638136,"(600000, 900000]",High,0.008377595633508837,0.008272911574845384,-0.14459150046371863,-0.1331069250444693,17.46335459916933,17.257762165372405,17.46335459916933
Château-l'Évêque,C,2326.0,2326.0,1163.0,1163.0,0,Château-l'Évêque,101,20,24,75,113435,87239,54800,64193,48521,27,9,1,45.2445887,0.6882106,1.0,0.00032617798739366155,Medium,Yes,0.0,0.0,0.0,421.5700825449747,"(0, 300000]",Low,0.00010571571929089078,8.351541789804014e-05,-0.2705444770542066,-0.2638943711687507,9.745307816408829,9.528726088801104,9.745307816408829
Longueville-sur-Scie,C,30580.0,30580.0,21388.0,21388.0,0,Longueville-sur-Scie,114,20,76,28,82343,63318,38112,46882,31628,28,10,2,49.7917558,1.1103434,0.42977370488124184,0.00048577292544600025,Medium,Yes,0.0,0.0,0.0,135.77502096151557,"(0, 300000]",Low,0.0013904004215897416,0.001098416328560933,-0.2509830395197131,-0.2476860579267295,14.058840510360483,13.63534498368973,14.058840510360483
Saint-Victor-l'Abbaye,C,12871.0,12871.0,14370.0,14370.0,0,Saint-Maclou-de-Folleville,015,20,76,28,709065,504460,323682,356637,276548,80,9,5,49.6770346,1.1097122,-0.10431454418928322,0.00013256894642945288,Large,No,0.0,0.0,0.0,126.4904571615773,"(600000, 900000]",High,0.0005851876590424794,0.0004622982487517318,-0.26324372817612796,-0.2578450803378201,12.538636667745907,12.194548214565105,12.538636667745907
Cesson,B,1723793.0,1723793.0,2259694.0,2259694.0,0,Cesson,001,20,77,11,13171056,9184054,5642167,6342502,6066757,2555,89,251,48.56563,2.5938,-0.2371564468463429,0.00021980014358757567,Huge,No,0.0,0.0,0.0,38.54416813033162,"(12900000, 13200000]",High,0.07837931663994976,0.06191965989217135,0.9212998348376241,0.72364991890708,22.2187910734321,21.264216258264202,22.2187910734321
Générac,C,1730.0,1730.0,354.0,354.0,0,Générac,037,20,30,76,350007,253001,154396,177580,122098,56,14,9,43.7324379,4.3434742,3.8870056497175143,0.00022570977151885533,Large,Yes,0.0,0.0,0.0,591.3582973886632,"(300000, 600000]",High,7.861611985116137e-05,6.210673442826296e-05,-0.27095711302683195,-0.264236275136056,9.289112763148605,9.090950994429525,9.289112763148605
Aillevillers,C,5628.0,5628.0,6932.0,6932.0,0,Corbenay,259,20,70,27,27955,21948,13119,16429,10239,5,1,2,47.9138876,6.3372988,-0.1881130986728217,0.0002861742085494545,Small,No,0.0,0.0,0.0,314.012171642113,"(0, 300000]",Low,0.0002558547752472441,0.00020212527161818144,-0.2682583629911041,-0.26200013140357925,11.153907287562605,10.876114607191342,11.153907287562605
Garancières - La Queue,B,273442.0,273442.0,321234.0,321234.0,0,Garancières,001,20,78,11,13171056,9184054,5642167,6342502,6066757,2555,89,251,48.8106338,1.7647546,-0.14877628146460212,0.00021980014358757567,Huge,No,0.0,0.0,0.0,42.07601234490964,"(12900000, 13200000]",High,0.012433123440266867,0.00982216747761634,-0.08283941941274986,-0.10836478056480715,18.259606298130148,17.58345981535586,18.259606298130148
Roissy-en-Brie,B,2879867.0,2879867.0,3272883.0,3272883.0,0,Roissy-en-Brie,001,12,77,11,13171056,9184054,5642167,6342502,6066757,2555,89,251,48.795481,2.650165,-0.12008250829620246,0.00021980014358757567,Huge,No,0.0,0.0,0.0,24.50493501669661,"(12900000, 13200000]",High,0.1309449916780131,0.1034465430023042,1.7216986929197344,1.3868483871932138,23.39838527995992,22.353965024541218,23.39838527995992
Plénée-Jugon,C,13750.0,13750.0,11362.0,11362.0,0,Plénée-Jugon,000,30,22,53,4444949,3492165,2011354,3253364,1282649,2546,2523,1005,48.376656,-2.3546108,0.21017426509417356,0.0013664948686700343,Tiny,No,0.0,0.0,0.0,348.8006402280887,"(4200000, 4500000]",High,0.0006251550213034225,0.0004938724648086682,-0.26263515935072906,-0.2573408293524822,12.652063928203123,12.302285712296522,12.652063928203123
Trith-Saint-Léger,C,13022.0,13022.0,9793.0,9793.0,0,Trith-Saint-Léger,038,20,59,32,337269,240084,142425,158629,112147,24,3,1,50.3318146,3.4893247,0.32972531399979577,8.301978539385476e-05,Large,Yes,0.0,0.0,0.0,182.9769562899983,"(300000, 600000]",High,0.0005920534971555651,0.00046772226083887335,-0.2631391844984997,-0.2577584570172444,12.558631644139355,12.21354300021175,12.558631644139355
Voves,C,48557.0,48557.0,27688.0,27688.0,0,Les Villages Vovéens,065,20,28,24,170935,126231,75568,86106,66392,30,2,4,48.2750095,1.6222874,0.7537200231147068,0.00021060637084271798,Medium,Yes,0.0,0.0,0.0,84.0542698163522,"(0, 300000]",Low,0.0022077989100595667,0.0017441611318095643,-0.2385368031440641,-0.23737329346322644,14.90237955523528,14.431961413429816,14.90237955523528
Frouard,C,68394.0,68394.0,41051.0,41051.0,0,Frouard,020,20,54,44,508793,360647,239386,269448,206872,62,9,8,48.75545,6.14411,0.666073908065577,0.00015526943177284277,Large,Yes,0.0,0.0,0.0,279.2954937260656,"(300000, 600000]",High,0.0031097699739621046,0.0024567182693766274,-0.22480281020955054,-0.22599351326283096,15.5417669549423,15.034468128109072,15.5417669549423
Pauillac,C,86882.0,86882.0,59029.0,59029.0,0,Pauillac,445,11,33,75,11541,8697,4993,5993,5067,4,1,0,45.2038438,-0.7551342,0.4718528181063545,0.0004332380209687202,Tiny,Yes,0.0,0.0,0.0,469.6552971253792,"(0, 300000]",Low,0.003950403186112637,0.0031208185042579033,-0.21200278695133173,-0.2153876063038698,15.995830001828876,15.461666821574749,15.995830001828876
Nangis,B,883754.0,883754.0,979933.0,979933.0,0,Nangis,001,20,77,11,13171056,9184054,5642167,6342502,6066757,2555,89,251,48.561336,3.012619,-0.09814854689045067,0.00021980014358757567,Huge,No,0.0,0.0,0.0,60.30325911764912,"(12900000, 13200000]",High,0.04018347701956241,0.03174494671554695,0.3397053552935483,0.24174947127084254,20.73394607223684,19.888074490500323,20.73394607223684
Montrabé,C,45468.0,45468.0,47262.0,47262.0,0,Montrabé,005,20,31,76,1490640,1036295,684922,760724,668535,169,26,54,43.6450204,1.5240482,-0.03795861368541323,0.0001670423442279826,Huge,No,0.0,0.0,0.0,583.9351959766211,"(1200000, 1500000]",High,0.0020673447780640564,0.001633202367987179,-0.2406754483109095,-0.23914534271659246,14.781110687958424,14.317560678210462,14.781110687958424
Malansac,C,68061.0,68061.0,26583.0,26583.0,0,Malansac,000,30,56,53,4444949,3492165,2011354,3253364,1282649,2546,2523,1005,47.6756185,-2.2961796,1.560320505586277,0.0013664948686700343,Tiny,No,0.0,0.0,0.0,367.26853884878864,"(4200000, 4500000]",High,0.0030946287548120547,0.002444756706297037,-0.22503336017412146,-0.22618454349959718,15.532568841639359,15.025808476054566,15.532568841639359
Argenton-sur-Creuse,B,199166.0,248958.0,136447.0,170559.0,0,Argenton-sur-Creuse,539,11,36,24,7386,5981,3786,5034,3124,3,1,0,46.592248,1.518305,0.4596583288749478,0.0005415651232060655,Tiny,Yes,49792.0,34112.0,0.4596622889305816,260.14230428838897,"(0, 300000]",Low,0.009055858594653876,0.008942687266082742,-0.13426383133007247,-0.12241037911430978,17.618953203741075,17.405116622100323,17.618953203741075
Colmar,B,4103990.0,4611225.0,3586247.0,4029491.0,1,Colmar,058,11,68,44,199434,152819,89838,104254,84738,133,24,13,48.073201,7.346967,0.14436902979633026,0.0008524123268850847,Medium,No,507235.0,443244.0,0.14436969253954932,379.92971937067637,"(0, 300000]",Low,0.18660479531049617,0.1656379782285902,2.569210747815915,2.3800667915989386,24.232864281798488,23.379192349850985,24.232864281798488
Pont de Briques,C,2047.0,2047.0,4158.0,4158.0,0,Saint-Étienne-au-Mont,068,20,62,32,159793,118073,69753,84945,56679,35,20,4,50.6828164,1.6268038,-0.5076960076960076,0.0003692276883217663,Medium,No,0.0,0.0,0.0,208.2194766085557,"(0, 300000]",Low,9.302983297598389e-05,7.349356775027532e-05,-0.27073764053803623,-0.2640544235292846,9.547449254774868,9.338942708338434,9.547449254774868
Clermont-en-Argonne,C,22.0,22.0,197.0,197.0,0,Clermont-en-Argonne,000,30,55,44,4444949,3492165,2011354,3253364,1282649,2546,2523,1005,49.10645,5.06506,-0.8883248730964467,0.0013664948686700343,Tiny,No,0.0,0.0,0.0,201.09834986750553,"(4200000, 4500000]",High,9.548516581112717e-07,7.543328068210077e-07,-0.27213963356583226,-0.26521609388799816,3.432789694793882,3.402927150678708,3.432789694793882
Douai,B,2964246.0,3705307.0,2908863.0,3636078.0,1,Douai,059,11,59,32,197809,143986,83017,92638,67382,10,6,0,50.371677,3.089986,0.019039397867826706,8.08861073055321e-05,Medium,No,741061.0,727215.0,0.019039761281051684,176.00041876403267,"(0, 300000]",Low,0.13478163110943078,0.1330968511957486,1.7801178384468463,1.8603739086235946,23.46579060330262,22.89974106513305,23.46579060330262
Luc-la-Primaube,C,11661.0,11661.0,5019.0,5019.0,0,Luc-la-Primaube,103,20,12,76,112911,85557,52826,64672,50132,42,18,7,44.2913982,2.5544751,1.323371189479976,0.0005933877124460859,Medium,Yes,0.0,0.0,0.0,509.02671603996805,"(0, 300000]",Low,0.0005301700158846394,0.00041883431083490234,-0.2640814622816258,-0.2585392142311749,12.369919083895363,12.034222328198233,12.369919083895363
Auxonne,B,362209.0,452762.0,269718.0,337148.0,0,Tillenay,028,20,21,27,414799,296478,196357,219324,179356,113,16,9,47.192663,5.37737,0.342917417450819,0.0003326912552826791,Large,Yes,90553.0,67430.0,0.34291858223342725,293.0230728906843,"(300000, 600000]",High,0.016469281399103215,0.016263451235670776,-0.02138227615429522,-0.005495284898379654,18.83761506495849,18.557105146737225,18.83761506495849
Abbeville,B,841557.0,1026289.0,758410.0,924890.0,0,Abbeville,164,11,80,32,54199,41763,24441,28313,19469,8,9,1,50.10221,1.82449,0.10963331179704909,0.0003321094485138102,Medium,No,184732.0,166480.0,0.10963479096588179,142.21750340047706,"(0, 300000]",Low,0.038264816285404256,0.03686489084031992,0.3104905899632227,0.32351672291491035,20.627414789468588,20.191963081505058,20.627414789468588
La Croix de Méan,C,5910.0,5910.0,3800.0,3800.0,0,Saint-Nazaire,055,11,44,52,219339,165893,101775,141199,92948,66,36,18,47.300426,-2.1932575,0.5552631578947368,0.0005470983272468645,Large,Yes,0.0,0.0,0.0,378.5888270960878,"(0, 300000]",Low,0.00026867706894188116,0.00021225488359549212,-0.2680631224805666,-0.2618383580499214,11.233944744932195,10.952482317502449,11.233944744932195
Sauto,C,199.0,199.0,86.0,86.0,0,Sauto,000,30,66,76,4444949,3492165,2011354,3253364,1282649,2546,2523,1005,42.5063705,2.1600389,1.313953488372093,0.0013664948686700343,Tiny,No,0.0,0.0,0.0,707.3602548500246,"(4200000, 4500000]",High,9.002887062191989e-06,7.112280750026644e-06,-0.2720170889900694,-0.26511455529368094,6.184255089864202,6.0919154548975305,6.184255089864202
Liévin,C,38216.0,38216.0,37700.0,37700.0,0,Liévin,042,12,62,32,321298,232571,135356,146580,99992,18,0,1,50.434139,2.7716316,0.013687002652519894,5.913513311629702e-05,Large,No,0.0,0.0,0.0,177.12731733707946,"(300000, 600000]",High,0.0017376026721296308,0.0013727061053649908,-0.24569631420600918,-0.24330555676172372,14.46271723449092,14.01700483113947,14.46271723449092
Rognac,B,223205.0,279006.0,240424.0,300530.0,0,Rognac,003,20,13,93,1888788,1372344,849590,969271,758303,303,52,76,43.4866,5.230666,-0.07161930589292251,0.00022818865854717417,Huge,No,55801.0,60106.0,-0.07162346521145975,638.3499628999485,"(1800000, 2100000]",High,0.010148890928431822,0.010022029750814059,-0.11762061632010265,-0.10517291198412457,17.847954438995203,17.62186976988023,17.847954438995203
Strazeele,C,55301.0,55301.0,47677.0,47677.0,0,Strazeele,004,20,59,32,1521660,1042779,655674,714534,628196,122,17,17,50.713492,2.6312181,0.15990939027203893,0.0001025196167343559,Huge,Yes,0.0,0.0,0.0,206.46744061515074,"(1500000, 1800000]",High,0.0025144426996930153,0.0019864097246286537,-0.23386764710482635,-0.2335045009204293,15.143664154299604,14.65945992496374,15.143664154299604
Montfort-sur-Meu,B,493201.0,616502.0,317441.0,396801.0,0,Montfort-sur-Meu,013,20,35,53,771320,522114,341999,377043,347697,96,16,18,48.138878,-1.949141,0.5536776912875149,0.00016854223927812063,Large,Yes,123301.0,79360.0,0.5536920362903226,325.6786277617386,"(600000, 900000]",High,0.022425373227641866,0.022145091892283718,0.06930901801709155,0.08843651981063685,19.483043284922054,19.165727698612137,19.483043284922054
Saint-Amarin,C,56906.0,56906.0,62487.0,62487.0,0,Saint-Amarin,029,20,68,44,408968,304955,179702,202903,153319,71,13,8,47.8728596,7.0287447,-0.08931457743210588,0.0002249564758122885,Large,No,0.0,0.0,0.0,363.95272731900224,"(300000, 600000]",High,0.0025874206478486623,0.0020440623034356877,-0.23275643781612873,-0.23258376959907853,15.19698369680623,14.70971140105041,15.19698369680623
Mérenvielle,C,49538.0,49538.0,54960.0,54960.0,0,Mérenvielle,005,20,31,76,1490640,1036295,684922,760724,668535,169,26,54,43.6365051,1.1503303,-0.09865356622998545,0.0001670423442279826,Huge,No,0.0,0.0,0.0,588.6170463207147,"(1200000, 1500000]",High,0.002252404123231336,0.0017793992500710599,-0.23785761541059847,-0.23681052871167188,14.939372175698809,14.466850832762905,14.939372175698809
Argentière,C,16320.0,16320.0,16513.0,16513.0,0,Chamonix-Mont-Blanc,408,11,74,84,13486,10219,6267,20053,7850,59,13,21,45.9819438,6.9264844,-0.011687761157875613,0.00689604033812843,Tiny,No,0.0,0.0,0.0,471.32035243041497,"(0, 300000]",Low,0.0007420106766056115,0.0005861884321196201,-0.260855839804341,-0.25586651190957166,12.948271139744334,12.58345340659977,12.948271139744334
Mâlain,C,62336.0,62336.0,35307.0,35307.0,0,Mâlain,028,20,21,27,414799,296478,196357,219324,179356,113,16,9,47.3270025,4.8105362,0.7655422437476987,0.0003326912552826791,Large,Yes,0.0,0.0,0.0,251.28051046864613,"(300000, 600000]",High,0.002834318005160291,0.0022391112149136912,-0.22899701947492754,-0.22946877204460217,15.367416850035076,14.870285496458106,15.367416850035076
Mehun-sur-Yèvre,C,82908.0,82908.0,62482.0,62482.0,0,Mehun-sur-Yèvre,064,20,18,24,173033,132985,81202,95513,70372,28,10,2,47.1394406,2.2071342,0.3269101501232355,0.00023116977686337287,Medium,Yes,0.0,0.0,0.0,192.28809625117776,"(0, 300000]",Low,0.0037697088770967235,0.0029780700007194898,-0.21475415499699171,-0.21766734852882175,15.906491807637142,15.377657972897728,15.906491807637142
Pérenchies,C,74415.0,74415.0,103683.0,103683.0,0,Pérenchies,004,12,59,32,1521660,1042779,655674,714534,628196,122,17,17,50.66697,2.97729,-0.2822834987413559,0.0001025196167343559,Huge,No,0.0,0.0,0.0,205.45546437791137,"(1500000, 1800000]",High,0.003383539585080579,0.002672996261275165,-0.22063421760690366,-0.22253948006292262,15.701177783527823,15.184510663541884,15.701177783527823
Surdon,C,118394.0,118394.0,55804.0,55804.0,0,Le Château-d'Almenêches,215,20,61,28,35656,27735,16571,19726,13113,8,2,0,48.6647685,0.1344097,1.121604186079851,0.00028045770697778774,Small,Yes,0.0,0.0,0.0,162.71579678023372,"(0, 300000]",Low,0.005383226302798466,0.0042527487618075985,-0.19018569841211758,-0.1973102945291628,16.59236753538359,16.022076139423326,16.59236753538359
Cassis,B,332671.0,415838.0,226893.0,283616.0,0,Cassis,003,20,13,93,1888788,1372344,849590,969271,758303,303,52,76,43.23406,5.553055,0.46620213051967224,0.00022818865854717417,Huge,Yes,83167.0,56723.0,0.4661953704846359,673.6418616295978,"(1800000, 2100000]",High,0.015126214338279844,0.01493711863762035,-0.041832681119746716,-0.02667726826881892,18.661738769835377,18.391073823595452,18.661738769835377
Hundling,C,17112.0,17112.0,37398.0,37398.0,0,Hundling,121,20,57,44,76994,60888,34655,39692,28512,6,3,0,49.1066949,6.9775394,-0.5424354243542435,0.00011689222536821051,Medium,No,0.0,0.0,0.0,339.8829609967603,"(0, 300000]",Low,0.0007780222248543794,0.0006146375551197267,-0.2603075047534697,-0.2554121697248304,13.030701045870506,12.66165173596121,13.030701045870506
Nieppe,C,66872.0,66872.0,80779.0,80779.0,0,Nieppe,004,20,59,32,1521660,1042779,655674,714534,628196,122,17,17,50.6966975,2.8289655,-0.17216108146919373,0.0001025196167343559,Huge,No,0.0,0.0,0.0,206.57688439981925,"(1500000, 1800000]",High,0.003040565963312326,0.002402047101187029,-0.22585655509266442,-0.2268666304410838,15.499376357912347,14.994557188146006,15.499376357912347
Wissembourg,B,250964.0,313706.0,194148.0,242686.0,0,Wissembourg,368,11,67,44,14980,11790,6725,7728,6085,8,0,0,49.0318895,7.9501435,0.2926427261676659,0.000534045393858478,Tiny,Yes,62742.0,48538.0,0.29263669702089085,410.4830881662977,"(0, 300000]",Low,0.011411068413075194,0.011268474912561152,-0.09840188819240382,-0.08526675818295885,18.085076374036053,17.8461822444645,18.085076374036053
Bedous,C,16568.0,16568.0,525.0,525.0,0,Bedous,000,30,64,75,4444949,3492165,2011354,3253364,1282649,2546,2523,1005,42.99589,-0.60348,30.558095238095238,0.0013664948686700343,Tiny,No,0.0,0.0,0.0,691.042927692593,"(4200000, 4500000]",High,0.0007532870199966398,0.0005950967433620778,-0.2606841389298258,-0.2557242431446527,12.974480911359953,12.608319865609012,12.974480911359953
La Mothe-Achard,C,80478.0,80478.0,47771.0,47771.0,0,Les Achards,066,20,85,52,172907,124509,75507,82847,79419,19,19,2,46.6068648,-1.6596359,0.6846622427832786,0.00023133823384825368,Medium,Yes,0.0,0.0,0.0,390.17014096433144,"(0, 300000]",Low,0.0036592188995152766,0.0028907829187873445,-0.21643654663034695,-0.21906135295927803,15.849852403704833,15.324386260323136,15.849852403704833
La Clayette - Baudemont,C,36569.0,36569.0,29159.0,29159.0,0,Baudemont,000,30,71,27,4444949,3492165,2011354,3253364,1282649,2546,2523,1005,46.2881469,4.2984195,0.2541239411502452,0.0013664948686700343,Tiny,No,0.0,0.0,0.0,322.36207015696317,"(4200000, 4500000]",High,0.001662715020657761,0.0013135448609443148,-0.24683660186861664,-0.24425038198681073,14.382491850427416,13.941229214412573,14.382491850427416
Châteauneuf-sur-Charente,C,48173.0,48173.0,47548.0,47548.0,0,Châteauneuf-sur-Charente,000,30,16,75,4444949,3492165,2011354,3253364,1282649,2546,2523,1005,45.599836,-0.0502,0.013144611760747035,0.0013664948686700343,Tiny,No,0.0,0.0,0.0,405.3383891247296,"(4200000, 4500000]",High,0.0021903387654541038,0.0017303676176276944,-0.23880266256266838,-0.23759358058310104,14.88770701803457,14.418122029742399,14.88770701803457
Cessieu,C,53457.0,53457.0,29255.0,29255.0,0,Cessieu,002,20,38,84,2308818,1598413,1010763,1122933,1056227,329,39,45,45.5611596,5.3761179,0.8272773884806016,0.0001788794092908146,Huge,Yes,0.0,0.0,0.0,433.40893183111746,"(2100000, 2400000]",High,0.0024305976302855304,0.0019201721200677994,-0.23514432618791567,-0.23456233802732698,15.080572802193181,14.599988845737721,15.080572802193181
Luant,C,1741.0,1741.0,924.0,924.0,0,Luant,100,20,36,24,112091,86790,53159,64196,45223,24,5,0,46.7357683,1.5901964,0.8841991341991342,0.0002587183627588299,Medium,Yes,0.0,0.0,0.0,243.35595796633766,"(0, 300000]",Low,7.911628024350536e-05,6.250186113659778e-05,-0.27094949726223655,-0.26422996482793465,9.298799300957253,9.10025373140356,9.298799300957253
Domblans - Voiteur,C,33201.0,33201.0,44879.0,44879.0,0,Domblans,132,20,39,27,71298,55106,33967,41541,29556,19,11,2,46.7627809,5.5977462,-0.2602107890104503,0.0004488204437712138,Medium,No,0.0,0.0,0.0,337.79549398564507,"(0, 300000]",Low,0.0015095750023473437,0.0011925642469741646,-0.2491684105192917,-0.24618248360071063,14.207239452424103,13.775634254473857,14.207239452424103
La Crau,C,98175.0,98175.0,15687.0,15687.0,0,La Crau,018,20,83,93,581948,446498,275575,343442,209921,114,51,42,43.1449352,6.0687663,5.258366800535475,0.0003557018840171287,Large,Yes,0.0,0.0,0.0,698.3643486202456,"(300000, 600000]",High,0.004463886032543618,0.0035264699512783625,-0.20418416608076354,-0.2089092145206835,16.230132348141897,15.681891231401826,16.230132348141897
Assat,C,475.0,475.0,236.0,236.0,0,Assat,044,20,64,75,283042,209498,131771,152200,116389,50,15,7,43.2543993,-0.2950176,1.0127118644067796,0.000254379208739339,Large,Yes,0.0,0.0,0.0,656.0713682606586,"(0, 300000]",Low,2.1552365997368703e-05,1.7026369068245602e-05,-0.27182600253294753,-0.2649562239262711,7.386081381537459,7.256959950635845,7.386081381537459
Stephansfeld,C,29958.0,29958.0,37920.0,37920.0,0,Brumath,010,20,67,44,864993,617436,386250,431910,380457,204,20,28,48.7175872,7.7045946,-0.20996835443037976,0.00029133183736747005,Large,No,0.0,0.0,0.0,393.73565496277854,"(600000, 900000]",High,0.0013621186248590172,0.0010760737092350918,-0.25141367639047324,-0.24804287716777634,14.0218648204936,13.600380190505058,14.0218648204936
Ascq,C,17383.0,17383.0,14630.0,14630.0,0,Villeneuve-d'Ascq,004,12,59,32,1521660,1042779,655674,714534,628196,122,17,17,50.6218591,3.1598992,0.18817498291182502,0.0001025196167343559,Huge,Yes,0.0,0.0,0.0,204.00171807183872,"(1500000, 1800000]",High,0.0007903443581566725,0.0006243720403887026,-0.2601198800075276,-0.2552567066792939,13.05808168454883,12.687622337446678,13.05808168454883
Ollioules - Sanary-sur-Mer,B,399110.0,498888.0,312150.0,390187.0,0,Ollioules,018,20,83,93,581948,446498,275575,343442,209921,114,51,42,43.122586,5.824979,0.27858401409578726,0.0003557018840171287,Large,Yes,99778.0,78037.0,0.27859861347822185,693.1372353907539,"(300000, 600000]",High,0.018147137638911025,0.017920325285548194,0.004165844694446255,0.020965558047803902,19.039236878546856,18.747337923061053,19.039236878546856
Mutzig,B,244603.0,305754.0,239957.0,299946.0,0,Mutzig,010,20,67,44,864993,617436,386250,431910,380457,204,20,28,48.5337753,7.4621581,0.019361802322916188,0.00029133183736747005,Large,No,61151.0,59989.0,0.01937021787327677,378.1394133305871,"(600000, 900000]",High,0.011121839298920631,0.01098283422304493,-0.10280587715527324,-0.08982853729036144,18.033007022334843,17.7969350795455,18.033007022334843
Castillon-la-Bataille,B,183626.0,229532.0,149930.0,187413.0,0,Castillon-la-Bataille,000,30,33,75,4444949,3492165,2011354,3253364,1282649,2546,2523,1005,44.856999,-0.04066,0.22474488094444073,0.0013664948686700343,Tiny,No,45906.0,37483.0,0.22471520422591576,480.94085610671215,"(4200000, 4500000]",High,0.008349268367651536,0.008244893499163462,-0.14502282967671465,-0.13355438325671454,17.456600655561253,17.251354292034943,17.456600655561253
Feuquières - Fressenneville,C,860.0,860.0,19122.0,19122.0,0,Feuquières-en-Vimeu,246,12,80,32,29774,23329,13317,17145,10343,5,5,0,50.0632646,1.5890574,-0.9550256249346303,0.00033586350507153895,Small,No,0.0,0.0,0.0,143.51384517143472,"(0, 300000]",Low,3.905797972940868e-05,3.0855803859964076e-05,-0.2715594507721073,-0.26473536314202184,8.24235797176331,8.083761329824101,8.24235797176331
Saint-Geours-de-Maremne,C,8147.0,8147.0,7126.0,7126.0,0,Saint-Geours-de-Maremne,677,11,40,75,2868,2134,1188,1335,2572,2,0,0,43.6713719,-1.2412599,0.1432781364019085,0.000697350069735007,Tiny,No,0.0,0.0,0.0,639.5215723766504,"(0, 300000]",Low,0.0003703915050940199,0.00029260928782685376,-0.2665143528987494,-0.26055507084377705,11.765023982969481,11.458702538711126,11.765023982969481
Balagny Saint-Épin,C,10349.0,10349.0,14172.0,14172.0,0,Balagny-sur-Thérain,001,20,60,32,13171056,9184054,5642167,6342502,6066757,2555,89,251,49.2942448,2.3441977,-0.26975726785210274,0.00021980014358757567,Huge,No,0.0,0.0,0.0,47.551066501502476,"(12900000, 13200000]",High,0.00047051452181597325,0.0003717064707135137,-0.2649898152951905,-0.2592918618907463,12.167204725041888,11.841476759816109,12.167204725041888
Morcenx,B,233950.0,292438.0,146503.0,183129.0,0,Morcenx-la-Nouvelle,613,11,40,75,5299,4337,2500,2960,1912,2,1,0,44.033565,-0.90864,0.5968956267107158,0.0005661445555765239,Tiny,Yes,58488.0,36626.0,0.5968983782012778,591.8943397564278,"(0, 300000]",Low,0.010637456693498757,0.010504515382300714,-0.11018139899483431,-0.09746745210351195,17.942874601541785,17.711681248079636,17.942874601541785
Noyal - Acigné,B,246195.0,246195.0,143357.0,143357.0,0,Noyal-sur-Vilaine,013,20,35,53,771320,522114,341999,377043,347697,96,16,18,48.1187915,-1.5277646,0.7173559714558759,0.00016854223927812063,Large,Yes,0.0,0.0,0.0,296.3918533138413,"(600000, 900000]",High,0.011194226148430781,0.008843438621071007,-0.10170366831564298,-0.12399541378153228,18.04615744937515,17.3839559072503,18.04615744937515
Champagne-sur-Seine,B,428217.0,428217.0,457828.0,457828.0,0,Champagne-sur-Seine,001,20,77,11,13171056,9184054,5642167,6342502,6066757,2555,89,251,48.406531,2.799184,-0.06467712765492718,0.00021980014358757567,Huge,No,0.0,0.0,0.0,61.559593222733575,"(12900000, 13200000]",High,0.019470607506179825,0.01538177986693641,0.02431785015620388,-0.019575876974737356,19.186229204411934,18.44824293507927,19.186229204411934
Plerguer,C,1728.0,1728.0,2974.0,2974.0,0,Plerguer,088,20,35,53,137293,106828,66328,97430,54595,123,33,17,48.5314637,-1.8505895,-0.4189643577673167,0.0012600788095532911,Medium,No,0.0,0.0,0.0,309.27250024068405,"(0, 300000]",Low,7.852518159800791e-05,6.203489320856573e-05,-0.27095849771130387,-0.26423742246480536,9.287345339920561,9.089253565740458,9.287345339920561
Sévérac-d'Aveyron,C,11788.0,11788.0,20906.0,20906.0,0,Sévérac d'Aveyron,000,30,12,76,4444949,3492165,2011354,3253364,1282649,2546,2523,1005,44.3246516,3.0569451,-0.4361427341433081,0.0013664948686700343,Tiny,No,0.0,0.0,0.0,508.0594713361181,"(4200000, 4500000]",High,0.0005359445949598838,0.000423396228285677,-0.26399353481766036,-0.2584663588555913,12.38838412622654,12.051773137336845,12.38838412622654
Auch,B,261165.0,326457.0,232730.0,290912.0,0,Auch,145,11,32,76,65095,50609,31005,36556,27425,11,13,3,43.647488,0.596661,0.12218020882567783,0.00041477840079883247,Medium,No,65292.0,58182.0,0.12220274311642776,595.4628054241347,"(0, 300000]",Low,0.011874898973284387,0.011726498608740898,-0.09133930504349155,-0.0779519637414988,18.166035575946612,17.92273104316706,18.166035575946612
Sorgues - Châteauneuf-du-Pape,B,190892.0,209772.0,111465.0,122489.0,0,Sorgues,040,20,84,93,339324,249199,151855,176154,132731,93,22,13,44.0053909,4.8756182,0.7125734535504419,0.0003772205915290401,Large,Yes,18880.0,11024.0,0.7126269956458636,574.4966666101543,"(300000, 600000]",High,0.008679647041358035,0.007535102248554743,-0.1399922709903117,-0.1448899913002602,17.534061899351567,17.081725448211117,17.534061899351567
Trémolat,C,4335.0,4335.0,4761.0,4761.0,0,Trémolat,000,30,24,75,4444949,3492165,2011354,3253364,1282649,2546,2523,1005,44.8625105,0.8303278,-0.08947700063011972,0.0013664948686700343,Tiny,No,0.0,0.0,0.0,459.6452626249382,"(4200000, 4500000]",High,0.00019706319458353576,0.00015567992308391653,-0.2691535615021857,-0.2627418794400319,10.730349226402641,10.471638005640132,10.730349226402641
Caffiers,C,2566.0,2566.0,6298.0,6298.0,0,Caffiers,073,20,62,32,144425,105600,62386,70281,50133,28,35,6,50.8500679,1.8120345,-0.5925690695458876,0.0004777566210836074,Medium,No,0.0,0.0,0.0,223.68603045811076,"(0, 300000]",Low,0.00011662830966930532,9.21363642617088e-05,-0.2703783149175789,-0.2637566917188291,9.898355530119504,9.675437679516834,9.898355530119504
La Hisse,C,1143.0,1143.0,1908.0,1908.0,0,Saint-Samson-sur-Rance,187,20,22,53,48603,37120,22413,26293,19044,15,5,1,48.4961248,-2.0036608,-0.4009433962264151,0.00043207209431516574,Small,No,0.0,0.0,0.0,321.01411907240436,"(0, 300000]",Low,5.1925742550622487e-05,4.1021336447123375e-05,-0.27136351791933383,-0.2645730161239893,8.663309997396132,8.489261137240831,8.663309997396132
Hellemmes,C,1231.0,1231.0,4392.0,4392.0,0,Lille,004,11,59,32,1521660,1042779,655674,714534,628196,122,17,17,50.6226402,3.1149328,-0.7197176684881603,0.0001025196167343559,Huge,No,0.0,0.0,0.0,203.16830796782043,"(1500000, 1800000]",High,5.592702568937448e-05,4.418235011380188e-05,-0.2713025918025703,-0.26452253365901807,8.774204878344964,8.595981840949959,8.774204878344964
Valençay,C,39051.0,39051.0,19380.0,19380.0,0,Valençay,000,30,36,24,4444949,3492165,2011354,3253364,1282649,2546,2523,1005,47.163172,1.5584442,1.015015479876161,0.0013664948686700343,Tiny,No,0.0,0.0,0.0,197.99219114900603,"(4200000, 4500000]",High,0.001775569392821198,0.001402699814588588,-0.24511820843899207,-0.24282654700887144,14.502152424301372,14.054246089457989,14.502152424301372
Carcassonne,A,1047813.0,1378702.0,768690.0,1011434.0,1,Carcassonne,091,11,11,76,124351,95725,57786,70798,45775,50,15,7,43.218029,2.351824,0.363115169964485,0.0005790062001913937,Medium,Yes,330889.0,242744.0,0.3631191708136967,628.1015039665821,"(0, 300000]",Low,0.0476430964566137,0.049523780718901435,0.45329033018104936,0.5256835061866744,21.107046683701412,20.7988140804123,21.107046683701412
Saint-Denis-lès-Martel,C,21617.0,21617.0,18147.0,18147.0,0,Saint-Denis-lès-Martel,000,30,46,76,4444949,3492165,2011354,3253364,1282649,2546,2523,1005,44.9459316,1.6663378,0.19121617898275198,0.0013664948686700343,Tiny,No,0.0,0.0,0.0,438.8954947543647,"(4200000, 4500000]",High,0.0009828606400825355,0.0007764599024877571,-0.257188502980521,-0.25282781171692686,13.4404812354861,13.050099197589876,13.4404812354861
Grésy-sur-Aix,C,92911.0,92911.0,67310.0,67310.0,0,Grésy-sur-Aix,050,20,73,84,261463,191251,119668,141100,111156,89,30,10,45.7245161,5.9221751,0.38034467389689497,0.0004933776480802255,Large,Yes,0.0,0.0,0.0,441.84783736723034,"(0, 300000]",Low,0.004224536550243726,0.00333738386103523,-0.20782865561079727,-0.2119289837889641,16.124265820096287,15.582403699237211,16.124265820096287
Elbeuf - Saint-Aubin,B,251017.0,313772.0,232776.0,290970.0,0,Saint-Aubin-lès-Elbeuf,015,20,76,28,709065,504460,323682,356637,276548,80,9,5,49.302766,1.00993,0.07836288964498059,0.00013256894642945288,Large,No,62755.0,58194.0,0.07837577757157095,107.88804798982538,"(600000, 900000]",High,0.01141347827678376,0.01127084567281116,-0.09836519405389854,-0.08522889633423042,18.08550496586394,17.84658601001197,18.08550496586394
Lille Europe,A,6056899.0,9614126.0,7846574.0,12454880.0,1,Lille,004,11,59,32,1521660,1042779,655674,714534,628196,122,17,17,50.639224,3.075796,-0.22808361967911092,0.0001025196167343559,Huge,No,3557227.0,4608306.0,-0.22808359514320448,204.18633248133114,"(1500000, 1800000]",High,0.27540186182432597,0.3453452331608581,3.921292131480175,5.2500528653166825,25.169468999069792,25.029877804798986,25.169468999069792
Saint-Louis La Chaussée,C,57948.0,57948.0,52769.0,52769.0,0,Saint-Louis,BAL,12,68,44,114451,86327,50053,56472,30027,22,2,3,47.6094781,7.5312095,0.09814474407322481,0.00023590881687359655,Medium,No,0.0,0.0,0.0,409.4472925520172,"(0, 300000]",Low,0.002634799477741612,0.002081491578897949,-0.23203501720627023,-0.2319860113206689,15.230845758605758,14.741620959076789,15.230845758605758
Dannes - Camiers,C,11836.0,11836.0,13095.0,13095.0,0,Camiers,247,20,62,32,30716,23838,14003,32360,12222,30,14,5,50.5759062,1.614825,-0.09614356624665903,0.0015952597994530538,Small,No,0.0,0.0,0.0,196.94982075653922,"(0, 300000]",Low,0.0005381271130355666,0.0004251204175584107,-0.2639603023903348,-0.25843882296560705,12.395314225894019,12.058359851067516,12.395314225894019
Mâcon Loché TGV,A,440823.0,551028.0,426960.0,533700.0,1,Mâcon,084,11,71,27,138633,103871,61978,71571,57701,54,13,2,46.282884,4.778876,0.03246908375491849,0.0004977169937893575,Medium,No,110205.0,106740.0,0.03246205733558179,340.83614742657676,"(0, 300000]",Low,0.02004379131580605,0.01979322588305521,0.03304551638257268,0.05087641854327306,19.24698558818095,18.943243837937896,19.24698558818095
Villers-Bretonneux,B,194818.0,243523.0,143251.0,179064.0,0,Villers-Bretonneux,035,20,80,32,353124,249601,159221,179067,136577,43,22,5,49.86295,2.52141,0.35997654466635487,0.00019823064985670757,Large,Yes,48705.0,35813.0,0.3599810124815011,111.61556321595883,"(300000, 600000]",High,0.008858158832298266,0.008747458751555496,-0.13727413537197725,-0.1255282449906595,17.574766465427953,17.36327678402532,17.574766465427953
Conlie,C,53288.0,53288.0,63827.0,63827.0,0,Conlie,034,20,72,52,369998,269437,165151,185798,144359,58,11,4,48.1272909,-0.0113736,-0.16511821016184372,0.00019729836377493934,Large,No,0.0,0.0,0.0,191.3212350058319,"(300000, 600000]",High,0.0024229133478940634,0.0019141015370033826,-0.235261332025791,-0.23465928730664679,15.074688304413874,14.594441451421401,15.074688304413874
Saint-Laurent-d'Aigouze,C,2259.0,2259.0,607.0,607.0,0,Saint-Laurent-d'Aigouze,316,20,30,76,20736,16802,10070,31657,6567,24,12,11,43.6392883,4.1930703,2.7215815485996706,0.0022665895061728396,Small,Yes,0.0,0.0,0.0,598.5366533412437,"(0, 300000]",Low,0.00010266928781025007,8.110873703818264e-05,-0.2705908639840151,-0.2639328066818538,9.699920682037213,9.485202937152525,9.699920682037213
Saint-Aignan - Noyers,C,85328.0,85328.0,83040.0,83040.0,0,Noyers-sur-Cher,000,30,41,24,4444949,3492165,2011354,3253364,1282649,2546,2523,1005,47.2869126,1.3838369,0.027552986512524084,0.0013664948686700343,Tiny,No,0.0,0.0,0.0,189.29119660370657,"(4200000, 4500000]",High,0.0038797441634124035,0.0030649978765531485,-0.21307868678599595,-0.21627908074211222,15.96136310447283,15.429258524243606,15.96136310447283
Sainte-Gauburge,C,1463.0,1463.0,3578.0,3578.0,0,Sainte-Gauburge-Sainte-Colombe,000,30,61,28,4444949,3492165,2011354,3253364,1282649,2546,2523,1005,48.7172632,0.4281082,-0.5911123532699832,0.0013664948686700343,Tiny,No,0.0,0.0,0.0,140.54804625126036,"(4200000, 4500000]",High,6.64758630551752e-05,5.251593159868158e-05,-0.27114196840383026,-0.2643894435240938,9.03420336798539,8.84602644450658,9.03420336798539
Marssac-sur-Tarn,C,11976.0,11976.0,8842.0,8842.0,0,Marssac-sur-Tarn,082,20,81,76,139305,105551,66431,76266,51243,27,12,3,43.9151803,2.026913,0.3544446957701877,0.0003014967158393453,Medium,Yes,0.0,0.0,0.0,551.0801813174814,"(0, 300000]",Low,0.0005444927907563085,0.00043014930293721747,-0.263863374477302,-0.25835850995315274,12.415376684010496,12.077427398285467,12.415376684010496
Kerhostin,C,2919.0,2919.0,1551.0,1551.0,0,Saint-Pierre-Quiberon,567,20,56,53,6924,5881,3662,12411,2731,16,14,3,47.5369524,-3.1363795,0.8820116054158608,0.004766031195840554,Tiny,Yes,0.0,0.0,0.0,431.37588596215903,"(0, 300000]",Low,0.00013267891135089002,0.00010481633953827145,-0.270133918108289,-0.2635541881945694,10.100554035502709,9.869146008782083,10.100554035502709
Ham-en-Artois,C,2550.0,2550.0,4195.0,4195.0,0,Ham-en-Artois,156,20,62,32,56876,41791,23912,26795,12372,0,1,0,50.5900401,2.4657764,-0.39213349225268174,1.7582108446444897e-05,Medium,No,0.0,0.0,0.0,191.86656625221949,"(0, 300000]",Low,0.00011590080364407769,9.156163450413089e-05,-0.2703893923933541,-0.26376587034882387,9.888581180689323,9.666070315813682,9.888581180689323
Kogenheim,C,29617.0,29617.0,31420.0,31420.0,0,Kogenheim,010,20,67,44,864993,617436,386250,431910,380457,204,20,28,48.3389532,7.5353085,-0.057383831954169316,0.00029133183736747005,Large,No,0.0,0.0,0.0,386.8986704249041,"(600000, 900000]",High,0.0013466136526963533,0.0010638247812767125,-0.2516497650929317,-0.24823849671953996,14.001285173084128,13.580918065103189,14.001285173084128
Le Tréport - Mers-les-Bains,C,55023.0,55023.0,56461.0,56461.0,0,Le Tréport,248,12,76,28,28841,22991,13772,20213,10736,17,13,3,50.0628592,1.3763738,-0.025468907741626964,0.0011442044311917063,Small,No,0.0,0.0,0.0,149.91169542062022,"(0, 300000]",Low,0.002501802282504685,0.0019764237950907373,-0.23406011824642006,-0.2336639796165885,15.134280732530486,14.65061562925382,15.134280732530486
Tantonville,C,200.0,200.0,391.0,391.0,0,Tantonville,020,20,54,44,508793,360647,239386,269448,206872,62,9,8,48.4838433,6.129105,-0.4884910485933504,0.00015526943177284277,Large,No,0.0,0.0,0.0,281.9053774729524,"(300000, 600000]",High,9.048356188768717e-06,7.148201359875264e-06,-0.2720163966478334,-0.2651139816293063,6.190999690509703,6.098469050397708,6.190999690509703
Marignier,B,164852.0,206066.0,99742.0,124677.0,0,Marignier,163,20,74,84,56061,40961,23580,29764,24195,14,2,1,46.0887815,6.507826,0.652784183192637,0.000303241112359751,Medium,Yes,41214.0,24935.0,0.6528574293162221,440.14306944612997,"(0, 300000]",Low,0.007495630985300059,0.007401980468455759,-0.15802086281441477,-0.14701599147279967,17.242214535103134,17.048231169129213,17.242214535103134
La Forest-Landerneau,C,72201.0,72930.0,61896.0,62521.0,0,La Forest-Landerneau,032,20,29,53,375744,267875,175641,200639,154615,55,26,9,48.4263093,-4.3074515,0.16648894920511825,0.00023952478283086357,Large,Yes,729.0,625.0,0.1664,490.16939295177673,"(300000, 600000]",High,0.0032828709388397054,0.002619654155649965,-0.222167063317294,-0.22339137165931258,15.644023867151681,15.148604602602456,15.644023867151681
Aurillac,C,133725.0,167157.0,160641.0,200801.0,0,Aurillac,123,11,15,84,77440,61023,37124,48460,32319,40,30,2,44.921092,2.435655,-0.16755373783778738,0.0009297520661157025,Medium,No,33432.0,40160.0,-0.16752988047808764,438.7966892110225,"(0, 300000]",Low,0.006080313482346271,0.0060043454598558265,-0.1795713995927887,-0.16933669862696557,16.829986842974414,16.657298514919162,16.829986842974414
Don - Sainghin,B,149938.0,187423.0,235004.0,293755.0,0,Sainghin-en-Weppes,004,20,59,32,1521660,1042779,655674,714534,628196,122,17,17,50.55176,2.91458,-0.3619768174158738,0.0001025196167343559,Huge,No,37485.0,58751.0,-0.36196830692243537,191.97686642815864,"(1500000, 1800000]",High,0.006817504431534749,0.006732312539047948,-0.16834645492135308,-0.1577108164098352,17.054807096429425,16.870556096501574,17.054807096429425
Cosne-Cours-sur-Loire,B,209767.0,262209.0,194441.0,243051.0,0,Cosne-Cours-sur-Loire,254,11,58,27,28894,23407,14185,19685,9464,10,3,0,47.413996,2.931981,0.07882082482603978,0.00044992039869869177,Small,No,52442.0,48610.0,0.07883151614894054,167.5246061498926,"(0, 300000]",Low,0.009537876805493763,0.009418671267186799,-0.12692431128678075,-0.11480875248551305,17.72298583591568,17.503602197558266,17.72298583591568
Les Praz de Chamonix,C,7797.0,7797.0,5497.0,5497.0,0,Chamonix-Mont-Blanc,408,11,74,84,13486,10219,6267,20053,7850,59,13,21,45.9394594,6.888753,0.41841004184100417,0.00689604033812843,Tiny,Yes,0.0,0.0,0.0,472.5850917960579,"(0, 300000]",Low,0.0003544773107921654,0.00028003707437983694,-0.26675667268133146,-0.26075585337491275,11.691801039995832,11.388959258474939,11.691801039995832
Chamelet,C,13668.0,13668.0,11419.0,11419.0,0,Chamelet,002,20,69,84,2308818,1598413,1010763,1122933,1056227,329,39,45,45.9816414,4.5069346,0.19695244767492776,0.0001788794092908146,Huge,Yes,0.0,0.0,0.0,360.0341372713097,"(2100000, 2400000]",High,0.0006214265529241309,0.0004909269748010815,-0.2626919314140769,-0.25738786983120543,12.641776238605432,12.292515665615461,12.641776238605432
Guérard - La Celle-sur-Morin,C,72793.0,72793.0,71847.0,71847.0,0,Guérard,001,20,77,11,13171056,9184054,5642167,6342502,6066757,2555,89,251,48.810588,2.954783,0.013166868484418278,0.00021980014358757567,Huge,No,0.0,0.0,0.0,45.90709682692922,"(12900000, 13200000]",High,0.0033097886617731278,0.002614733032100704,-0.22175719671361238,-0.22346996367864283,15.659466389998379,15.14525719963034,15.659466389998379
Berthelming,C,17339.0,17339.0,19951.0,19951.0,0,Berthelming,170,20,57,44,52298,40877,23201,30163,18646,9,8,2,48.8096475,7.0087859,-0.130920755851837,0.00036330261195456805,Medium,No,0.0,0.0,0.0,342.18811807545427,"(0, 300000]",Low,0.0007883437165872965,0.0006227915335553633,-0.26015034306590934,-0.2552819479117795,13.053663613031182,12.683431935623267,13.053663613031182
Thourotte,C,47726.0,47726.0,58107.0,58107.0,0,Thourotte,078,20,60,32,141752,103104,62276,68844,57224,20,7,1,49.4760722,2.8830021,-0.17865317431634742,0.00019752807720525988,Medium,No,0.0,0.0,0.0,78.66732364216782,"(0, 300000]",Low,0.0021700140658743065,0.0017143111050253615,-0.23911213954213745,-0.23785000855858002,14.87048769769723,14.401879717673964,14.87048769769723
Azay-sur-Cher,C,22517.0,22517.0,12858.0,12858.0,0,Montlouis-sur-Loire,019,20,37,24,522597,377061,244387,276078,214496,152,37,11,47.3652695,0.8599885,0.7512054751905428,0.00038270407216267984,Large,Yes,0.0,0.0,0.0,199.57720918259363,"(300000, 600000]",High,0.0010237828540015901,0.0008087884513515146,-0.2565653949681672,-0.25231151377972083,13.512566215761504,13.11838079235195,13.512566215761504
Fréteval - Morée,C,4261.0,4261.0,3792.0,3792.0,0,Fréteval,182,20,41,24,46778,36398,21707,26254,17365,7,4,2,47.8919172,1.211813,0.12368143459915612,0.0002779084184873231,Small,No,0.0,0.0,0.0,136.41008764325744,"(0, 300000]",Low,0.00019369847921685794,0.0001530217979551187,-0.2692047948276459,-0.2627843306037578,10.702632741243821,10.44515015482431,10.702632741243821
Vauboyen,B,194880.0,194880.0,212014.0,212014.0,0,Jouy-en-Josas,001,12,78,11,13171056,9184054,5642167,6342502,6066757,2555,89,251,48.7590575,2.192119,-0.08081541784976463,0.00021980014358757567,Huge,No,0.0,0.0,0.0,15.814467897800744,"(12900000, 13200000]",High,0.008860977918146024,0.007000172526689103,-0.13723121015334844,-0.15343300116789593,17.57540305258204,16.94355305949388,17.57540305258204
Chantenay-Saint-Imbert,C,9463.0,9463.0,7487.0,7487.0,0,Chantenay-Saint-Imbert,122,20,58,27,76580,59628,37207,44330,30695,15,7,3,46.7283203,3.1720842,0.26392413516762386,0.0003264559937320449,Medium,Yes,0.0,0.0,0.0,245.8843851680016,"(0, 300000]",Low,0.00043022887566899294,0.00033988081038763686,-0.26560323051624096,-0.2598001285267069,12.016104862963834,11.697726115693028,12.016104862963834
Albias,C,26119.0,26119.0,10586.0,10586.0,0,Albias,081,20,82,76,141847,105296,61874,70865,55335,22,14,2,44.0919078,1.4448012,1.4673153221235595,0.00026789428045711225,Medium,Yes,0.0,0.0,0.0,535.2595500291333,"(0, 300000]",Low,0.0011875626479309616,0.0009381744880262418,-0.2540715782342801,-0.25024517470214735,13.7762229638659,13.367998226351371,13.7762229638659
Val-de-Reuil,B,552133.0,690167.0,495465.0,619331.0,0,Val-de-Reuil,144,12,27,28,64164,46279,26543,29477,30070,13,3,1,49.275437,1.224147,0.11437336643355232,0.00026494607568106727,Medium,No,138034.0,123866.0,0.11438167051491127,92.70594281910616,"(0, 300000]",Low,0.025104959795061554,0.024791183616782266,0.11011013066601795,0.13069550597095014,19.72188593465564,19.390693654028485,19.72188593465564
Lacelle,C,1830.0,1830.0,854.0,854.0,0,Lacelle,000,30,19,75,4444949,3492165,2011354,3253364,1282649,2546,2523,1005,45.6412701,1.8264798,1.1428571428571428,0.0013664948686700343,Tiny,No,0.0,0.0,0.0,360.6796973412488,"(4200000, 4500000]",High,8.316303250883409e-05,6.569879541312491e-05,-0.2708878788032371,-0.2641789086985887,9.375116171871655,9.173535610587084,9.375116171871655
Béard,C,1688.0,1688.0,2292.0,2292.0,0,Béard,097,20,58,27,113918,88513,55126,68242,41810,32,6,2,46.8652207,3.3179944,-0.26352530541012215,0.00035112976000280905,Medium,No,0.0,0.0,0.0,234.35334649517145,"(0, 300000]",Low,7.670641653493882e-05,6.059806881462095e-05,-0.2709861914007418,-0.26426036903979233,9.251585897927841,9.0549080047854,9.251585897927841
Trilport,B,990660.0,990660.0,1211959.0,1211959.0,0,Trilport,001,20,77,11,13171056,9184054,5642167,6342502,6066757,2555,89,251,48.96013551,2.94953688,-0.18259611092454447,0.00021980014358757567,Huge,No,0.0,0.0,0.0,46.214144079432415,"(12900000, 13200000]",High,0.04504439946537401,0.03558507543202346,0.41372089436987564,0.3030776349096731,20.98375146082388,20.119942236618954,20.98375146082388
Darsac,C,2133.0,2133.0,7577.0,7577.0,0,Vernassal,000,30,43,84,4444949,3492165,2011354,3253364,1282649,2546,2523,1005,45.14211,3.7365537,-0.7184901676125115,0.0013664948686700343,Tiny,No,0.0,0.0,0.0,427.58103382134055,"(4200000, 4500000]",High,9.694017786158243e-05,7.658274019725659e-05,-0.27067809910574464,-0.2640050883930627,9.611017950929632,9.399931311154578,9.611017950929632
Trie-Château,C,35594.0,35594.0,57753.0,57753.0,0,Trie-Château,001,20,60,32,13171056,9184054,5642167,6342502,6066757,2555,89,251,49.2827168,1.8180386,-0.38368569598116115,0.00021980014358757567,Huge,No,0.0,0.0,0.0,59.57379023538902,"(12900000, 13200000]",High,0.001618382622245452,0.0012785222663419108,-0.24751163554866656,-0.24480970475211727,14.333378480595949,13.894831021445341,14.333378480595949
Belleville sur Sâone,B,1029985.0,1061840.0,857814.0,884345.0,0,Belleville-en-Beaujolais,357,11,69,84,16680,11667,6787,7307,7593,6,0,0,46.111917,4.729028,0.20070901151065382,0.00035971223021582735,Tiny,Yes,31855.0,26531.0,0.20067091327126757,355.24594396814723,"(0, 300000]",Low,0.04683247286800381,0.03814190444104819,0.4409472527985567,0.3439110650989231,21.069281689597435,20.261500245726285,21.069281689597435
Boisset,C,368.0,368.0,174.0,174.0,0,Boisset,123,20,15,84,77440,61023,37124,48460,32319,40,30,2,44.786038,2.2497669,1.1149425287356323,0.0009297520661157025,Medium,Yes,0.0,0.0,0.0,453.78969905723534,"(0, 300000]",Low,1.668716945365889e-05,1.3182863814443323e-05,-0.27190008315219405,-0.26501760601436114,7.0269951625908345,6.9094349479617225,7.0269951625908345
Santes,C,42691.0,42691.0,50164.0,50164.0,0,Santes,004,20,59,32,1521660,1042779,655674,714534,628196,122,17,17,50.5920123,2.961977,-0.14897137389362888,0.0001025196167343559,Huge,No,0.0,0.0,0.0,197.09673683187222,"(1500000, 1800000]",High,0.001941077013560485,0.0015334508344375627,-0.24259808270013894,-0.2407384086850604,14.665265232598,14.208238061897486,14.665265232598
Saint-Louis,B,1306485.0,1346891.0,1116797.0,1151337.0,0,Saint-Louis,BAL,12,68,44,114451,86327,50053,56472,30027,22,2,3,47.5906094,7.5559882,0.1698500264595983,0.00023590881687359655,Medium,Yes,40406.0,34540.0,0.1698320787492762,411.955433508039,"(0, 300000]",Low,0.05940468636646889,0.048381110199007,0.632379881038361,0.5074346687639399,21.595887030465928,20.750488309105695,21.595887030465928
Tonneins,B,210124.0,262656.0,173850.0,217313.0,0,Tonneins,366,11,47,75,15487,11891,7067,8435,5503,0,1,1,44.392796,0.314093,0.20865113603681334,0.00012914056950991153,Tiny,Yes,52532.0,43463.0,0.20866023974415018,520.766396285067,"(0, 300000]",Low,0.009554109283681654,0.009434727779789131,-0.12667714510854708,-0.11455232451003405,17.726402257115165,17.50684147800553,17.726402257115165
Heilly,C,8233.0,8233.0,4917.0,4917.0,0,Heilly,035,20,80,32,353124,249601,159221,179067,136577,43,22,5,49.9435191,2.5396593,0.6743949562741509,0.00019823064985670757,Large,Yes,0.0,0.0,0.0,120.66739631432411,"(300000, 600000]",High,0.0003743018499796185,0.000295698460273835,-0.26645481146645783,-0.26050573570755514,11.782561542787853,11.47540422599282,11.782561542787853
Le Grand Jardin,C,8324.0,8324.0,23324.0,23324.0,0,Lisieux,162,11,14,28,54825,41574,25246,30347,21793,13,4,3,49.1505827,0.2271143,-0.6431143886125879,0.000364797081623347,Medium,No,0.0,0.0,0.0,156.8276900860056,"(0, 300000]",Low,0.00037843954049810065,0.00029896723577005937,-0.26639180832298653,-0.2604535322494599,11.800931620613097,11.49289773315769,11.800931620613097
Cérons,B,382657.0,478322.0,196905.0,246131.0,0,Cérons,006,20,33,75,1393764,988605,641451,730509,601777,238,79,68,44.632346,-0.340526,0.9433584723597674,0.00027623040916539674,Huge,Yes,95665.0,49226.0,0.9433835777840979,512.9332984261192,"(1200000, 1500000]",High,0.017399034099344134,0.017181582023401486,-0.0072252621136170364,0.009167576518271511,18.951610262985955,18.664673925417848,18.951610262985955
Ria-Sirach,C,1145.0,1145.0,269.0,269.0,0,Ria-Sirach,363,12,66,76,15398,12294,7635,12241,4986,7,11,7,42.6034078,2.3907488,3.2565055762081783,0.0016235874788933628,Tiny,Yes,0.0,0.0,0.0,696.4568441640648,"(0, 300000]",Low,5.201668080377594e-05,4.109317766682061e-05,-0.2713621332348619,-0.26457186879524,8.665918409771573,8.49177185937115,8.665918409771573
Quimper,A,1483787.0,1854733.0,918186.0,1147732.0,1,Quimper,052,11,29,53,239789,184476,116819,149548,97529,78,82,18,47.994455,-4.092103,0.6159982835721738,0.0007423192890416158,Large,Yes,370946.0,229546.0,0.615998536241102,483.73524652199563,"(0, 300000]",Low,0.06746645344677578,0.06662310454574959,0.7551335441565302,0.7987655321268101,21.880643828260364,21.417919481212955,21.880643828260364
Mulhouse,A,5056324.0,6653057.0,5017072.0,6601410.0,1,Mulhouse,029,11,68,44,408968,304955,179702,202903,153319,71,13,8,47.742224,7.342396,0.007823686803777184,0.0002249564758122885,Large,No,1596733.0,1584338.0,0.007823456863371325,390.9291758591271,"(300000, 600000]",High,0.2299065904998171,0.23898182887701647,3.2285517987458454,3.5513930690670015,24.73241909330828,24.194957377220295,24.73241909330828
Viroflay Rive Droite,B,2426142.0,2426142.0,1427232.0,1427232.0,0,Viroflay,001,12,78,11,13171056,9184054,5642167,6342502,6066757,2555,89,251,48.8056695,2.1683208,0.6998932198829623,0.00021980014358757567,Huge,No,0.0,0.0,0.0,13.85149429848125,"(12900000, 13200000]",High,0.11031451222198756,0.08714846429873935,1.407565711913929,1.126562518794542,23.00049808788048,21.986721638892387,23.00049808788048
Ménil Flin,C,1946.0,1946.0,2019.0,2019.0,0,Flin,020,20,54,44,508793,360647,239386,269448,206872,62,9,8,48.5050204,6.6592265,-0.03615651312530956,0.00015526943177284277,Large,No,0.0,0.0,0.0,320.05279653578515,"(300000, 600000]",High,8.843745119173444e-05,6.986558615556476e-05,-0.27080756710386705,-0.2641123636311266,9.469496577243042,9.264135347030745,9.469496577243042
Les Moussoux,C,2054.0,2054.0,2264.0,2264.0,0,Chamonix-Mont-Blanc,408,11,74,84,13486,10219,6267,20053,7850,59,13,21,45.9166347,6.8589899,-0.09275618374558305,0.00689604033812843,Tiny,No,0.0,0.0,0.0,472.7739873197559,"(0, 300000]",Low,9.334811686202098e-05,7.374501201921565e-05,-0.2707327941423846,-0.26405040787866185,9.552716676957859,9.34399685593525,9.552716676957859
Herrlisheim,B,178606.0,223258.0,158057.0,197572.0,0,Herrlisheim,010,20,67,44,864993,617436,386250,431910,380457,204,20,28,48.7279056,7.9102594,0.13001005966202067,0.00029133183736747005,Large,No,44652.0,39515.0,0.13000126534227507,408.69206519207347,"(600000, 900000]",High,0.008121013352236365,0.008019527592973223,-0.1484983877011769,-0.1371535535434152,17.401376460428747,17.19904763737919,17.401376460428747
La Basse Indre - Saint-Herblain,C,36375.0,36375.0,25242.0,25242.0,0,Saint-Herblain,008,12,44,52,1031953,714965,459881,501124,471335,115,19,40,47.2040872,-1.6603088,0.4410506299025434,0.0001686123302127132,Huge,Yes,0.0,0.0,0.0,349.71540582586266,"(900000, 1200000]",High,0.0016538940101018759,0.0013065762626336826,-0.24697091626239068,-0.24436167287549737,14.372818768465418,13.932091435087058,14.372818768465418
Sous le Bois,C,8.0,8.0,715.0,715.0,0,Maubeuge,077,11,59,32,139250,101555,59415,65410,42557,11,5,0,50.2655833,3.93961,-0.9888111888111888,0.00011490125673249551,Medium,No,0.0,0.0,0.0,193.93750054771937,"(0, 300000]",Low,3.1828388603709054e-07,2.514442689403359e-07,-0.27214932635713557,-0.26522412518924354,2.3405734321976706,2.326403881599112,2.3405734321976706
Sceaux - Boëssé,C,7451.0,7451.0,5511.0,5511.0,0,Boëssé-le-Sec,227,20,72,52,33506,25967,15299,18749,14093,5,4,0,48.1221004,0.5724063,0.35202322627472327,0.00026860860741359754,Small,Yes,0.0,0.0,0.0,153.91602282986526,"(0, 300000]",Low,0.0003387449929966178,0.00026760854337221464,-0.2669962230949697,-0.2609543412485497,11.616302590935275,11.317031206225847,11.616302590935275
Saverne,B,1312771.0,1640964.0,1210024.0,1512530.0,0,Saverne,010,20,67,44,864993,617436,386250,431910,380457,204,20,28,48.7444606,7.3620802,0.08491319180446008,0.00029133183736747005,Large,No,328193.0,302506.0,0.08491401823434908,368.4626678892873,"(600000, 900000]",High,0.059690505296130195,0.058944391699020056,0.6367319443335342,0.67613387241726,21.606589987892402,21.161161667032232,21.606589987892402
Nyer,C,281.0,281.0,119.0,119.0,0,Nyer,000,30,66,76,4444949,3492165,2011354,3253364,1282649,2546,2523,1005,42.5416979,2.2630177,1.361344537815126,0.0013664948686700343,Tiny,No,0.0,0.0,0.0,703.3255815919476,"(4200000, 4500000]",High,1.2731355441483621e-05,1.0057770757613434e-05,-0.27196031692672157,-0.2650675148149577,6.653395647164273,6.547350693028698,6.653395647164273
Feurs,B,172283.0,215354.0,181429.0,226786.0,0,Feurs,320,11,42,84,20497,15502,9142,10479,7780,4,1,0,45.744156,4.230573,-0.05041090454117037,0.00024393813728838367,Small,No,43071.0,45357.0,-0.05040015874065745,375.4903284549508,"(0, 300000]",Low,0.00783351206489172,0.007735611092729736,-0.1528760676590803,-0.14168779676083348,17.329696661579558,17.131130146172215,17.329696661579558
Olette - Canaveilles,C,2807.0,2807.0,1134.0,1134.0,0,Olette,363,20,66,76,15398,12294,7635,12241,4986,7,11,7,42.55472,2.2719309,1.4753086419753085,0.0016235874788933628,Tiny,Yes,0.0,0.0,0.0,701.8726081075605,"(0, 300000]",Low,0.00012758636917429658,0.00010079323123522607,-0.27021146043871525,-0.2636184386045328,10.039019794429574,9.81020985930108,10.039019794429574
Sainte-Eulalie - Carbon-Blanc,C,46371.0,46371.0,11962.0,11962.0,0,Sainte-Eulalie,006,20,33,75,1393764,988605,641451,730509,601777,238,79,68,44.8978327,-0.4939737,2.876525664604581,0.00027623040916539674,Huge,Yes,0.0,0.0,0.0,490.7597192153493,"(1200000, 1500000]",High,0.002108403399362841,0.0016656386786804821,-0.24005026327184786,-0.23862732378626242,14.81734525725534,14.351747352128386,14.81734525725534
Monistrol-d'Allier,C,2661.0,2661.0,470.0,470.0,0,Monistrol-d'Allier,115,20,43,84,82583,63043,38592,49145,34511,30,14,5,44.9696648,3.6500424,4.6617021276595745,0.0005933424554690433,Medium,Yes,0.0,0.0,0.0,444.6975303947541,"(0, 300000]",Low,0.0001209478766940944,9.554882219732764e-05,-0.2703125424051638,-0.26370219360323516,9.955233770088258,9.72994132264917,9.955233770088258
Mundolsheim,C,67611.0,67611.0,73530.0,73530.0,0,Mundolsheim,010,20,67,44,864993,617436,386250,431910,380457,204,20,28,48.6447732,7.721389,-0.08049775601795185,0.00029133183736747005,Large,No,0.0,0.0,0.0,395.6717820700468,"(600000, 900000]",High,0.0030741676478525273,0.0024285924318651585,-0.22534491418029834,-0.2264426924682002,15.520071299662659,15.014042178092202,15.520071299662659
Lunery,C,661.0,661.0,783.0,783.0,0,Lunery,064,20,18,24,173033,132985,81202,95513,70372,28,10,2,46.9351795,2.275014,-0.1558109833971903,0.00023116977686337287,Medium,No,0.0,0.0,0.0,214.81558866889617,"(0, 300000]",Low,3.0009623540639966e-05,2.3707602500088813e-05,-0.2716972268770611,-0.26484952235258186,7.859064993094012,7.713990368501969,7.859064993094012
Bréval,B,308723.0,308723.0,387979.0,387979.0,0,Bréval,001,20,78,11,13171056,9184054,5642167,6342502,6066757,2555,89,251,48.94336,1.54191,-0.20427909758002366,0.00021980014358757567,Huge,No,0.0,0.0,0.0,58.4696407471889,"(12900000, 13200000]",High,0.014037319695020381,0.01108948251368548,-0.05841289298624521,-0.08812532776195622,18.507978194355285,17.815462846010508,18.507978194355285
Haubourdin,C,64790.0,64790.0,66832.0,66832.0,0,Haubourdin,004,12,59,32,1521660,1042779,655674,714534,628196,122,17,17,50.6070495,2.990153,-0.030554225520708644,0.0001025196167343559,Huge,No,0.0,0.0,0.0,199.19292759592014,"(1500000, 1800000]",High,0.00294589924177958,0.0023272603914822033,-0.22729801162790952,-0.22806099966915375,15.439890698974281,14.93854295414314,15.439890698974281
Cantin,C,20021.0,20021.0,44067.0,44067.0,0,Cantin,059,20,59,32,197809,143986,83017,92638,67382,10,6,0,50.3124545,3.121943,-0.5456690947874827,8.08861073055321e-05,Medium,No,0.0,0.0,0.0,170.51578112137227,"(0, 300000]",Low,0.0009102919140660789,0.0007191306091693606,-0.25829348118909506,-0.25374338005890557,13.305392918134793,12.922097750238253,13.305392918134793
Saillans,C,14221.0,14221.0,9405.0,9405.0,0,Saillans,342,20,26,84,18081,13742,8303,10350,6757,2,13,0,44.6944365,5.1940397,0.5120680489101542,0.0008296001327360213,Tiny,Yes,0.0,0.0,0.0,512.4299765948358,"(0, 300000]",Low,0.000646570979921061,0.000510791072047368,-0.26230906615759725,-0.25707063343201103,12.710057979295964,12.35735577209737,12.710057979295964
Walheim,C,5556.0,5556.0,6043.0,6043.0,0,Walheim,029,20,68,44,408968,304955,179702,202903,153319,71,13,8,47.6416406,7.2633202,-0.08058911136852556,0.0002249564758122885,Large,No,0.0,0.0,0.0,389.4994754690329,"(300000, 600000]",High,0.0002525809981337197,0.00019953898770908084,-0.2683082116320924,-0.2620414352385558,11.132866424234663,10.856035114140768,11.132866424234663
Vignols - Saint-Solve,C,111.0,111.0,365.0,365.0,0,Saint-Solve,087,20,19,75,133838,103226,63063,77026,52100,49,14,6,45.313078,1.397515,-0.6958904109589041,0.000515548648365935,Medium,No,0.0,0.0,0.0,401.43325227219384,"(0, 300000]",Low,5.0016039234399934e-06,3.9512670833481355e-06,-0.2720780151068328,-0.2651650377586522,5.413082757497773,5.341400257173425,5.413082757497773
Heilles - Mouchy,C,5848.0,5848.0,3568.0,3568.0,0,Heilles,001,20,60,32,13171056,9184054,5642167,6342502,6066757,2555,89,251,49.340531,2.2725858,0.6390134529147982,0.00021980014358757567,Huge,No,0.0,0.0,0.0,52.87652112071422,"(12900000, 13200000]",High,0.00026585798309412405,0.0002100278057848777,-0.2681060476991954,-0.2618739252411511,11.216661480957923,10.93599320982641,11.216661480957923
Montreuil-sur-Ille,B,310878.0,388598.0,243526.0,304407.0,0,Montreuil-sur-Ille,013,20,35,53,771320,522114,341999,377043,347697,96,16,18,48.307292,-1.674155,0.2765700582278689,0.00016854223927812063,Large,Yes,77720.0,60881.0,0.27658875511243247,301.2170919137078,"(600000, 900000]",High,0.014135305662793227,0.013958641225343958,-0.05692089546777585,-0.04230388583492133,18.52226705505663,18.259366089442,18.52226705505663
Cloyes-sur-le-Loir,C,19900.0,19900.0,14041.0,14041.0,0,Cloyes-les-Trois-Rivières,223,20,28,24,33804,26163,15229,18903,11272,5,4,1,47.9921032,1.2433542,0.4172779716544406,0.00029582297952904983,Small,Yes,0.0,0.0,0.0,126.18987406127641,"(0, 300000]",Low,0.0009047901497502949,0.0007147842153776776,-0.25837725459964483,-0.25381279344824104,13.294741121222934,12.912002492287499,13.294741121222934
Roanne,B,944259.0,1180323.0,966343.0,1207929.0,0,Roanne,079,11,42,84,141471,107741,65607,77175,51989,21,6,1,46.039383,4.063207,-0.022853169112830536,0.000197920421853242,Medium,No,236064.0,241586.0,-0.02285728477643572,340.1998364088384,"(0, 300000]",Low,0.04293458652308729,0.04239788605774216,0.3815955222796219,0.4118805412033472,20.878613490890725,20.478290069888068,20.878613490890725
Les Bons Pères,C,554.0,554.0,1070.0,1070.0,0,Rousies,077,20,59,32,139250,101555,59415,65410,42557,11,5,0,50.2798638,4.010967,-0.4822429906542056,0.00011490125673249551,Medium,No,0.0,0.0,0.0,198.29841288417413,"(0, 300000]",Low,2.5144426996930153e-05,1.9864097246286536e-05,-0.27177130749630757,-0.2649109044406719,7.6051592921979,7.468750212107687,7.6051592921979
Génelard,C,19122.0,19122.0,7554.0,7554.0,0,Génelard,176,20,71,27,48201,38763,23657,27898,15943,6,2,0,46.5812177,4.2379965,1.5313741064336774,0.0001659716603389971,Small,Yes,0.0,0.0,0.0,291.3190351016369,"(0, 300000]",Low,0.0008694151692736011,0.0006868379809154518,-0.2589158968592129,-0.25425910433173693,13.224757431307644,12.845667080703292,13.224757431307644
Montreuil-sur-Thérain,C,3687.0,3687.0,5185.0,5185.0,0,Villers-Saint-Sépulcre,001,20,60,32,13171056,9184054,5642167,6342502,6066757,2555,89,251,49.38152,2.2002529,-0.28891031822565094,0.00021980014358757567,Huge,No,0.0,0.0,0.0,58.06229597550956,"(12900000, 13200000]",High,0.00016759920056181652,0.00013240336790201117,-0.2696021992710804,-0.26311361395482025,10.470789576570617,10.22348718911373,10.470789576570617
Maisons-Laffitte,B,7964985.0,7964985.0,7549498.0,7549498.0,1,Maisons-Laffitte,001,12,78,11,13171056,9184054,5642167,6342502,6066757,2555,89,251,48.9456394,2.1443153,0.05503505001259686,0.00021980014358757567,Huge,No,0.0,0.0,0.0,16.369563308652385,"(12900000, 13200000]",High,0.3621608656776071,0.28610708271449603,5.242340659102508,4.303999424803477,25.840988007560522,24.601141467663524,25.840988007560522
Velars-sur-Ouche,C,4373.0,4373.0,4737.0,4737.0,0,Velars-sur-Ouche,028,20,21,27,414799,296478,196357,219324,179356,113,16,9,47.3265197,4.9274603,-0.07684188304834283,0.0003326912552826791,Large,No,0.0,0.0,0.0,257.7389709567751,"(300000, 600000]",High,0.0001987910213934514,0.00015704490625816406,-0.26912725249721964,-0.26272008019379434,10.744409119852447,10.485073698639022,10.744409119852447
Sainte-Anne,C,26342.0,26342.0,6824.0,6824.0,0,Pluneret,057,20,56,53,207414,153232,95046,112282,82467,44,36,8,47.6785805,-2.96048,2.8601992966002343,0.0004242722284898801,Large,Yes,0.0,0.0,0.0,413.3627276129547,"(0, 300000]",Low,0.0011977022631575716,0.0009461847840224838,-0.2539171859156636,-0.2501172475465952,13.791395833835388,13.382357066413762,13.791395833835388
Fontainebleau - Avon,B,3194698.0,3194698.0,4182635.0,4182635.0,0,Avon,001,20,77,11,13171056,9184054,5642167,6342502,6066757,2555,89,251,48.416371,2.72634,-0.23619966839085887,0.00021980014358757567,Huge,No,0.0,0.0,0.0,57.80015888312883,"(12900000, 13200000]",High,0.14526008226729073,0.1147554645215549,1.939669491405687,1.5674557159360034,23.641060860006625,22.577783760012977,23.641060860006625
Bar-sur-Aube,C,85393.0,85393.0,83007.0,83007.0,0,Bar-sur-Aube,389,11,10,44,13014,10571,6184,7814,5263,7,1,1,48.2385399,4.7066708,0.02874456371149421,0.0006915629322268327,Tiny,No,0.0,0.0,0.0,188.1210061659901,"(0, 300000]",Low,0.0038826996566398908,0.003067332716193309,-0.2130336845406593,-0.21624179255775844,15.962816588979258,15.430625260696424,15.962816588979258
Grenoble Universités - Gières,B,754594.0,943242.0,606585.0,758231.0,0,Gières,014,12,38,84,722904,509389,327884,386478,314066,122,48,27,45.184877,5.78474,0.24400372577627208,0.00027251197946061994,Large,Yes,188648.0,151646.0,0.24400247945873943,485.7255451515647,"(600000, 900000]",High,0.03431068463091232,0.03388179195422163,0.25028243209841944,0.27587561759141155,20.390978401308637,20.020182278615938,20.390978401308637
Croix Sainte,C,5138.0,5138.0,3970.0,3970.0,0,Martigues,003,13,13,93,1888788,1372344,849590,969271,758303,303,52,76,43.4088317,5.0196445,0.2942065491183879,0.00022818865854717417,Huge,Yes,0.0,0.0,0.0,641.0980613995268,"(1800000, 2100000]",High,0.00023357490322464773,0.00018452417279235793,-0.26859761068671895,-0.2622812269471692,11.00538397580863,10.73434740884247,11.00538397580863
Laboissière - Le Déluge,C,47951.0,47951.0,17744.0,17744.0,0,Laboissière-en-Thelle,001,20,60,32,13171056,9184054,5642167,6342502,6066757,2555,89,251,49.2885368,2.1361486,1.70237826871055,0.00021980014358757567,Huge,No,0.0,0.0,0.0,49.059121564781854,"(12900000, 13200000]",High,0.0021802446193540702,0.0017223932422413008,-0.23895636253904898,-0.23772093407427852,14.879174062317345,14.41007332858782,14.879174062317345
Isles - Armentières - Congis,C,85504.0,85504.0,100521.0,100521.0,0,Isles-les-Meldeuses,001,20,77,11,13171056,9184054,5642167,6342502,6066757,2555,89,251,48.9980994,3.0072998,-0.1493916694024134,0.00021980014358757567,Huge,No,0.0,0.0,0.0,51.35603969599791,"(12900000, 13200000]",High,0.0038877467296899075,0.003071319903886506,-0.212956834552469,-0.2161781158121697,15.965296282774453,15.432956946355016,15.965296282774453
Tourville-la-Rivière,C,3339.0,3339.0,2045.0,2045.0,0,Tourville-la-Rivière,015,20,76,28,709065,504460,323682,356637,276548,80,9,5,49.3248177,1.098964,0.6327628361858191,0.00013256894642945288,Large,Yes,0.0,0.0,0.0,103.30698273159672,"(600000, 900000]",High,0.00015177594451311547,0.0001199029956746916,-0.26984313436919055,-0.2633132491572066,10.313035141704885,10.07256002267242,10.313035141704885
Bitschwiller-lès-Thann,C,34337.0,34337.0,37642.0,37642.0,0,Bitschwiller-lès-Thann,029,20,68,44,408968,304955,179702,202903,153319,71,13,8,47.8273719,7.078514,-0.08780086074066203,0.0002249564758122885,Large,No,0.0,0.0,0.0,369.1548563323068,"(300000, 600000]",High,0.0015612279301385058,0.0012333700597621962,-0.24838190973925403,-0.24553080087108167,14.268153094856666,13.833201031510932,14.268153094856666
Saint-Germain-du-Puy,C,7210.0,7210.0,9138.0,9138.0,0,Saint-Germain-du-Puy,064,20,18,24,173033,132985,81202,95513,70372,28,10,2,47.0965233,2.4846102,-0.21098708688991027,0.00023116977686337287,Medium,No,0.0,0.0,0.0,197.1526668748933,"(0, 300000]",Low,0.00032778693349162655,0.00025895167639869736,-0.26716307757383334,-0.261092594362846,11.56173648497505,11.265034558765434,11.56173648497505
Vaas,C,6697.0,6697.0,8153.0,8153.0,0,Vaas,381,20,72,52,13677,10839,6467,8375,4932,4,2,0,47.6707702,0.3165096,-0.17858457009689685,0.0004386926957666155,Tiny,No,0.0,0.0,0.0,199.9033063152695,"(0, 300000]",Low,0.00030446127155776543,0.00024052440354635558,-0.26751824914087496,-0.2613868841870534,11.439615702773137,11.148630680145747,11.439615702773137
Gujan-Mestras,B,438839.0,461936.0,372350.0,391948.0,0,Gujan-Mestras,006,20,33,75,1393764,988605,641451,730509,601777,238,79,68,44.640454,-1.06906,0.17856586544917416,0.00027623040916539674,Huge,Yes,23097.0,19598.0,0.178538626390448,536.5460059971069,"(1200000, 1500000]",High,0.019953580568677822,0.01659298691042201,0.031671909386450536,-0.00023248792512621904,19.23753294243888,18.596361560142764,19.23753294243888
Rombas - Clouange,C,58928.0,58928.0,71512.0,71512.0,0,Rombas,317,12,57,44,20525,15679,9336,10229,4693,4,0,4,49.2560553,6.0990538,-0.17597046649513368,0.000389768574908648,Small,No,0.0,0.0,0.0,277.7372969047339,"(0, 300000]",Low,0.0026793592217868047,0.002116693776549596,-0.23135652181504054,-0.231423820233489,15.262173031514134,14.771139092532286,15.262173031514134
Marmagne sous Creusot,C,53.0,53.0,275.0,275.0,0,Marmagne,183,20,71,27,46597,36448,22489,26273,17556,10,0,0,46.8334607,4.3601911,-0.8072727272727273,0.00021460609052084898,Small,No,0.0,0.0,0.0,271.9842143418375,"(0, 300000]",Low,2.3643945819898155e-06,1.8678717121282093e-06,-0.27211817095651786,-0.2651983102923833,4.47828539914139,4.428413784457354,4.47828539914139
Gevrey-Chambertin,C,102990.0,102990.0,95685.0,95685.0,0,Gevrey-Chambertin,028,20,21,27,414799,296478,196357,219324,179356,113,16,9,47.2274694,4.999058,0.0763442545853582,0.0003326912552826791,Large,No,0.0,0.0,0.0,269.20832482793077,"(300000, 600000]",High,0.004682819877010559,0.0036994276876994646,-0.20085053821467072,-0.20614702055663128,16.32238142842052,15.768557647452608,16.32238142842052
Saint-Gaudens,B,282401.0,353001.0,275238.0,344047.0,0,Saint-Gaudens,195,11,31,76,44859,35606,21167,27027,16365,9,5,2,43.105034,0.729104,0.026024749489532695,0.0003566731313671727,Small,No,70600.0,68809.0,0.026028571843799503,652.5016506639375,"(0, 300000]",Low,0.012840481345267767,0.012679975276562653,-0.07663672532088582,-0.06272461658016905,18.325420180053158,18.073382222476777,18.325420180053158
La Cave,C,1.0,1.0,330.0,330.0,0,Marsac-sur-l'Isle,101,20,24,75,113435,87239,54800,64193,48521,27,9,1,45.1839595,0.628305,-0.996969696969697,0.00032617798739366155,Medium,No,0.0,0.0,0.0,429.3779098412384,"(0, 300000]",Low,0.0,0.0,-0.2721541727527872,-0.2652281408398663,0.7070060709599518,0.7056710438029401,0.7070060709599518
Saint-Aubin-sur-Scie,C,12469.0,12469.0,16024.0,16024.0,0,Saint-Aubin-sur-Scie,114,20,76,28,82343,63318,38112,46882,31628,28,10,2,49.8717479,1.0666642,-0.2218547179231153,0.00048577292544600025,Medium,No,0.0,0.0,0.0,144.57184438203598,"(0, 300000]",Low,0.000566909070158635,0.00044785816359258683,-0.26352204975497934,-0.25807569341643877,12.484306613733137,12.142929796092691,12.484306613733137
Albertville,B,323762.0,372140.0,358299.0,411838.0,0,Albertville,167,11,73,84,55710,42175,25379,30265,21832,11,2,2,45.672977,6.383167,-0.09639156123796047,0.00026925148088314486,Medium,No,48378.0,53539.0,-0.09639701899549862,468.3490187436486,"(0, 300000]",Low,0.014721129889607781,0.013367459828455379,-0.04800075809981332,-0.051745254113295544,18.605795001799102,18.17547860793894,18.605795001799102
Étalans,C,60802.0,60802.0,45347.0,45347.0,0,Étalans,045,20,25,27,283127,197878,131560,148479,116206,51,19,3,47.155884,6.2706173,0.34081637153505195,0.00025783482324186674,Large,Yes,0.0,0.0,0.0,349.1716262782117,"(0, 300000]",Low,0.002764568364991592,0.002184008999405909,-0.23005907246487275,-0.23034877319535113,15.320734011491375,14.826311006627641,15.320734011491375
Malesherbes,B,336626.0,336626.0,476343.0,476343.0,0,Le Malesherbois,001,20,45,24,13171056,9184054,5642167,6342502,6066757,2555,89,251,48.2934325,2.4012177,-0.2933117522457557,0.00021980014358757567,Huge,No,0.0,0.0,0.0,63.936084945095864,"(12900000, 13200000]",High,0.0153060447338908,0.012091775290291509,-0.03909446757656977,-0.07211837071544537,18.68612254047485,17.98177296624559,18.68612254047485
Domfront-en-Champagne,C,6928.0,6928.0,12836.0,12836.0,0,Domfront-en-Champagne,034,20,72,52,369998,269437,165151,185798,144359,58,11,4,48.1076766,0.0262592,-0.4602679962605173,0.00019729836377493934,Large,No,0.0,0.0,0.0,189.81047354186734,"(300000, 600000]",High,0.00031496463979698946,0.0002488220644213867,-0.2673583180843708,-0.2612543677165039,11.495659939505748,11.202057069646964,11.495659939505748
Turckheim,C,41049.0,41049.0,50446.0,50446.0,0,Turckheim,058,20,68,44,199434,152819,89838,104254,84738,133,24,13,48.0856288,7.279466,-0.1862783967014233,0.0008524123268850847,Medium,No,0.0,0.0,0.0,374.7282043706654,"(0, 300000]",Low,0.0018664167077214989,0.0014744691930661297,-0.24373490865156663,-0.24168036558827408,14.593377088931346,14.140378877948102,14.593377088931346
L'Isle-Jourdain,B,295866.0,369833.0,262164.0,327705.0,0,L'Isle-Jourdain,005,20,32,76,1490640,1036295,684922,760724,668535,169,26,54,43.617185,1.089829,0.12855311942143086,0.0001670423442279826,Huge,No,73967.0,65541.0,0.1285607482339299,591.474224832803,"(1200000, 1500000]",High,0.013452723134623399,0.013284590981534613,-0.06731433711383712,-0.053068697825667,18.42072250833118,18.163439492958318,18.42072250833118
Fellering,C,19737.0,19737.0,27050.0,27050.0,0,Fellering,000,30,68,44,4444949,3492165,2011354,3253364,1282649,2546,2523,1005,47.8975893,6.9871347,-0.2703512014787431,0.0013664948686700343,Tiny,No,0.0,0.0,0.0,360.1160075581057,"(4200000, 4500000]",High,0.0008973786821182884,0.0007089291559723527,-0.25849010638410447,-0.25390630074131276,13.280295038720993,12.89831066393904,13.280295038720993
